,pcode,area_name_en,area_name_mm,area_type_mm,area_type_en,location,point,latitude,longitude,altitude
0,MM01,Kachin,ကချင်ပြည်နယ်,ပြည်နယ်,State,"ကချင်ပြည်နယ် (Kachin), Myanmar","(26.090602, 97.37008354062499, 0.0)",26.090602,97.37008354062499,0.0
1,MM06,Tanintharyi,တနင်္သာရီတိုင်းဒေသကြီး,တိုင်းဒေသကြီး,Region,"တိုင်း ကညန, ၄လမ်း, ထိန်သစ်ရပ်ကွက်, ထားဝယ်, Dawei District, Tanintharyi Region, 14011, Myanmar","(14.099768, 98.1914369, 0.0)",14.099768,98.1914369,0.0
2,MM07,Bago,ပဲခူးတိုင်းဒေသကြီး,တိုင်းဒေသကြီး,Region,"ပဲခူးတိုင်းဒေသကြီး အရှေ့ခြမ်း, ပဲခူးတိုင်းဒေသကြီး (Bago), Myanmar","(18.159108, 96.65007445495218, 0.0)",18.159108,96.65007445495218,0.0
3,MM08,Magway,မကွေးတိုင်းဒေသကြီး,တိုင်းဒေသကြီး,Region,"မကွေးတိုင်းဒေသကြီး, Myanmar","(20.802759000000002, 94.54176226661828, 0.0)",20.802759000000002,94.54176226661828,0.0
4,MM09,Mandalay,မန္တလေးတိုင်းဒေသကြီး,တိုင်းဒေသကြီး,Region,,,,,
5,MM10,Mon,မွန်ပြည်နယ်,ပြည်နယ်,State,"Mon, Myanmar","(17.0832546, 97.3337305, 0.0)",17.0832546,97.3337305,0.0
6,MM11,Rakhine,ရခိုင်ပြည်နယ်,ပြည်နယ်,State,"ရခိုင်ပြည်နယ် (Rakhine), Myanmar","(19.5212991, 94.0072428, 0.0)",19.5212991,94.0072428,0.0
7,MM12,Yangon,ရန်ကုန်တိုင်းဒေသကြီး,တိုင်းဒေသကြီး,Region,"ရန်ကုန်တိုင်းဒေသကြီး, Myanmar","(17.05943415, 96.11338955271212, 0.0)",17.05943415,96.11338955271212,0.0
8,MM13,Shan,ရှမ်းပြည်နယ်,ပြည်နယ်,State,"ရှမ်းပြည်နယ် Shan State, Myanmar","(21.5122404, 98.0098362, 0.0)",21.5122404,98.0098362,0.0
9,MM14,Ayeyarwady,ဧရာဝတီတိုင်းဒေသကြီး,တိုင်းဒေသကြီး,Region,"ဧရာဝတီတိုင်းဒေသကြီး, Myanmar","(16.8340079, 95.1804705, 0.0)",16.8340079,95.1804705,0.0
10,MMR001,Kachin,ကချင်ပြည်နယ်,ပြည်နယ်,State,"ကချင်ပြည်နယ် (Kachin), Myanmar","(26.090602, 97.37008354062499, 0.0)",26.090602,97.37008354062499,0.0
11,MMR002,Kayah,ကယားပြည်နယ်,ပြည်နယ်,State,"ကယားပြည်နယ်‌ (Kayah), Myanmar","(19.2812505, 97.3291806, 0.0)",19.2812505,97.3291806,0.0
12,MMR003,Kayin,ကရင်ပြည်နယ်,ပြည်နယ်,State,"ကရင်ပြည်နယ် (Kayin), Myanmar","(17.1863135, 97.7499316, 0.0)",17.1863135,97.7499316,0.0
13,MM02,Kayah,ကယားပြည်နယ်,ပြည်နယ်,State,"ကယားပြည်နယ်‌ (Kayah), Myanmar","(19.2812505, 97.3291806, 0.0)",19.2812505,97.3291806,0.0
14,MMR004,Chin,ချင်းပြည်နယ်,ပြည်နယ်,State,"ချင်းပြည်နယ်‌, Myanmar","(22.018242, 93.5038035, 0.0)",22.018242,93.5038035,0.0
15,MM03,Kayin,ကရင်ပြည်နယ်,ပြည်နယ်,State,"ကရင်ပြည်နယ် (Kayin), Myanmar","(17.1863135, 97.7499316, 0.0)",17.1863135,97.7499316,0.0
16,MMR005,Sagaing,စစ်ကိုင်းတိုင်းဒေသကြီး,တိုင်းဒေသကြီး,Region,"Sagaing Regional TB Drug Store, ကျောင်းလမ်း - Kyaung St, မုံရွာ, မုံရွာခရိုင်, စစ်ကိုင်းတိုင်း (Sagaing), 02301, Myanmar","(22.1205461, 95.1318447, 0.0)",22.1205461,95.1318447,0.0
17,MMR006,Tanintharyi,တနင်္သာရီတိုင်းဒေသကြီး,တိုင်းဒေသကြီး,Region,"တိုင်း ကညန, ၄လမ်း, ထိန်သစ်ရပ်ကွက်, ထားဝယ်, Dawei District, Tanintharyi Region, 14011, Myanmar","(14.099768, 98.1914369, 0.0)",14.099768,98.1914369,0.0
18,MMR007,Bago (East),ပဲခူးတိုင်းဒေသကြီး(အရှေ့),တိုင်းဒေသကြီး,Region,"Sat Thay (East), တောင်ငူခရိုင်, ပဲခူးတိုင်းဒေသကြီး အရှေ့ခြမ်း, ပဲခူးတိုင်းဒေသကြီး (Bago), 08113, Myanmar","(19.4352707, 96.2766619, 0.0)",19.4352707,96.2766619,0.0
19,MM04,Chin,ချင်းပြည်နယ်,ပြည်နယ်,State,"ချင်းပြည်နယ်‌, Myanmar","(22.018242, 93.5038035, 0.0)",22.018242,93.5038035,0.0
20,MMR008,Bago (West),ပဲခူးတိုင်းဒေသကြီး(အနောက်),တိုင်းဒေသကြီး,Region,,,,,
21,MM05,Sagaing,စစ်ကိုင်းတိုင်းဒေသကြီး,တိုင်းဒေသကြီး,Region,"Sagaing Regional TB Drug Store, ကျောင်းလမ်း - Kyaung St, မုံရွာ, မုံရွာခရိုင်, စစ်ကိုင်းတိုင်း (Sagaing), 02301, Myanmar","(22.1205461, 95.1318447, 0.0)",22.1205461,95.1318447,0.0
22,MMR009,Magway,မကွေးတိုင်းဒေသကြီး,တိုင်းဒေသကြီး,Region,"မကွေးတိုင်းဒေသကြီး, Myanmar","(20.802759000000002, 94.54176226661828, 0.0)",20.802759000000002,94.54176226661828,0.0
23,MMR010,Mandalay,မန္တလေးတိုင်းဒေသကြီး,တိုင်းဒေသကြီး,Region,,,,,
24,MMR011,Mon,မွန်ပြည်နယ်,ပြည်နယ်,State,"Mon, Myanmar","(17.0832546, 97.3337305, 0.0)",17.0832546,97.3337305,0.0
25,MMR012,Rakhine,ရခိုင်ပြည်နယ်,ပြည်နယ်,State,"ရခိုင်ပြည်နယ် (Rakhine), Myanmar","(19.5212991, 94.0072428, 0.0)",19.5212991,94.0072428,0.0
26,MMR013,Yangon,ရန်ကုန်တိုင်းဒေသကြီး,တိုင်းဒေသကြီး,Region,"ရန်ကုန်တိုင်းဒေသကြီး, Myanmar","(17.05943415, 96.11338955271212, 0.0)",17.05943415,96.11338955271212,0.0
27,MMR014,Shan (South),ရှမ်းပြည်နယ်(တောင်),ပြည်နယ်,State,"မိုက်ဖျက် (တောင်), တောင်ကြီးခရိုင, ရှမ်းပြည်နယ်တောင်ပိုင်း, ရှမ်းပြည်နယ် Shan State, Myanmar","(19.91996, 96.957336, 0.0)",19.91996,96.957336,0.0
28,MMR015,Shan (North),ရှမ်းပြည်နယ်(မြောက်),ပြည်နယ်,State,"ဇယန်း (မြောက်), ပလောင်ကိုယ်ပိုင်အုပ်ချုပ်ခွင့်ရဒေသ, ကျောက်မဲခရိုင်, ရှမ်းပြည်နယ်မြောက်ပိုင်း, ရှမ်းပြည်နယ် Shan State, Myanmar","(22.982309, 97.141487, 0.0)",22.982309,97.141487,0.0
29,MMR016,Shan (East),ရှမ်းပြည်နယ်(အရှေ့),ပြည်နယ်,State,,,,,
30,MMR017,Ayeyarwady,ဧရာဝတီတိုင်းဒေသကြီး,တိုင်းဒေသကြီး,Region,"ဧရာဝတီတိုင်းဒေသကြီး, Myanmar","(16.8340079, 95.1804705, 0.0)",16.8340079,95.1804705,0.0
31,MMR018,Nay Pyi Taw,နေပြည်တော်,ပြည်ထောင်စုနယ်မြေ,Union Territory,"နေပြည်တော်, ဒက္ခိဏခရိုင်, နေပြည်တော် ပြည်ထောင်စုနယ်မြ, 15011, Myanmar","(19.7540045, 96.1344976, 0.0)",19.7540045,96.1344976,0.0
32,MMR005S001,Naga Self-Administered Zone,နာဂကိုယ်ပိုင်အုပ်ချုပ်ခွင့်ရဒေသ,ကိုယ်ပိုင်အုပ်ချုပ်ခွင့်ရဒေသ,Self-Administered Zone,,,,,
33,MMR014S001,Danu Self-Administered Zone,ဓနုကိုယ်ပိုင်အုပ်ချုပ်ခွင့်ရဒေသ,ကိုယ်ပိုင်အုပ်ချုပ်ခွင့်ရဒေသ,Self-Administered Zone,,,,,
34,MMR014S002,Pa-O Self-Administered Zone,ပအိုဝ်းကိုယ်ပိုင်အုပ်ချုပ်ခွင့်ရဒေသ,ကိုယ်ပိုင်အုပ်ချုပ်ခွင့်ရဒေသ,Self-Administered Zone,,,,,
35,MMR015S001,Pa Laung Self-Administered Zone,ပလောင်ကိုယ်ပိုင်အုပ်ချုပ်ခွင့်ရဒေသ,ကိုယ်ပိုင်အုပ်ချုပ်ခွင့်ရဒေသ,Self-Administered Zone,,,,,
36,MMR015S002,Kokang Self-Administered Zone,ကိုးကန့်ကိုယ်ပိုင်အုပ်ချုပ်ခွင့်ရဒေသ,ကိုယ်ပိုင်အုပ်ချုပ်ခွင့်ရဒေသ,Self-Administered Zone,,,,,
37,MMR015S501,Wa Self-Administered Division,ဝကိုယ်ပိုင်အုပ်ချုပ်ခွင့်ရတိုင်း,ကိုယ်ပိုင်အုပ်ချုပ်ခွင့်ရတိုင်း,Self-Administered Division,,,,,
38,MMR001D001,Myitkyina,မြစ်ကြီးနားခရိုင်,ခရိုင်,District,"မြစ်ကြီးနားခရိုင်, ကချင်ပြည်နယ် (Kachin), Myanmar","(25.827448, 97.70932155983101, 0.0)",25.827448,97.70932155983101,0.0
39,MMR001D002,Mohnyin,မိုးညှင်းခရိုင်,ခရိုင်,District,"မိုးညှင်းခရိုင်, ကချင်ပြည်နယ် (Kachin), Myanmar","(25.311261100000003, 96.54251881471731, 0.0)",25.311261100000003,96.54251881471731,0.0
40,MMR001D003,Bhamo,ဗန်းမော်ခရိုင်,ခရိုင်,District,"ဗန်းမော်ခရိုင်, ကချင်ပြည်နယ် (Kachin), 074, Myanmar","(24.2692872, 97.17853617700688, 0.0)",24.2692872,97.17853617700688,0.0
41,MMR001D004,Puta-O,ပူတာအိုခရိုင်,ခရိုင်,District,"ပူတာအိုခရိုင်, ကချင်ပြည်နယ် (Kachin), 01051, Myanmar","(27.2583245, 97.89560354526998, 0.0)",27.2583245,97.89560354526998,0.0
42,MMR002D001,Loikaw,လွိုင်ကော်ခရိုင်,ခရိုင်,District,,,,,
43,MMR002D002,Bawlake,ဘောလခဲခရိုင်,ခရိုင်,District,,,,,
44,MMR003D001,Hpa-An,ဘားအံခရိုင်,ခရိုင်,District,"ဘားအံခရိုင်, ကရင်ပြည်နယ် (Kayin), Myanmar","(17.1790581, 97.87587580411804, 0.0)",17.1790581,97.87587580411804,0.0
45,MMR003D002,Myawaddy,မြဝတီခရိုင်,ခရိုင်,District,"မြဝတီခရိုင်, ကရင်ပြည်နယ် (Kayin), 13052, Myanmar","(16.56501595, 98.49448513768631, 0.0)",16.56501595,98.49448513768631,0.0
46,MMR003D003,Kawkareik,ကော့ကရိတ်ခရိုင်,ခရိုင်,District,"ကော့ကရိတ်ခရိုင်, ကရင်ပြည်နယ် (Kayin), 170757, Myanmar","(16.0387975, 98.21271138892715, 0.0)",16.0387975,98.21271138892715,0.0
47,MMR003D004,Hpapun,ဖာပွန်ခရိုင်,ခရိုင်,District,"ဖာပွန်ခရိုင်, ကရင်ပြည်နယ် (Kayin), Myanmar","(18.069898799999997, 97.42525672912043, 0.0)",18.069898799999997,97.42525672912043,0.0
48,MMR004D001,Falam,ဖလမ်းခရိုင်,ခရိုင်,District,"ဖလမ်းခရိုင်, ချင်းပြည်နယ်‌, 03042, Myanmar","(23.44561555, 93.71180040461054, 0.0)",23.44561555,93.71180040461054,0.0
49,MMR004D002,Mindat,မင်းတပ်ခရိုင်,ခရိုင်,District,"မင်းတပ်ခရိုင်, ချင်းပြည်နယ်‌, Myanmar","(21.4361514, 93.35165992478288, 0.0)",21.4361514,93.35165992478288,0.0
50,MMR004D003,Hakha,ဟားခါးခရိုင်,ခရိုင်,District,"ဟားခါးခရိုင်, ချင်းပြည်နယ်‌, 03011, Myanmar","(22.538805699999998, 93.56692266031689, 0.0)",22.538805699999998,93.56692266031689,0.0
51,MMR004D004,Matupi,မတူပီခရိုင်,ခရိုင်,District,,,,,
52,MMR005D001,Sagaing,စစ်ကိုင်းခရိုင်,ခရိုင်,District,"စစ်ကိုင်းခရိုင်, စစ်ကိုင်းတိုင်း (Sagaing), Myanmar","(21.9134294, 95.46992658785372, 0.0)",21.9134294,95.46992658785372,0.0
53,MMR005D002,Shwebo,ရွှေဘိုခရိုင်,ခရိုင်,District,"ရွှေဘိုခရိုင်, စစ်ကိုင်းတိုင်း (Sagaing), Myanmar","(22.5385263, 95.59808650856662, 0.0)",22.5385263,95.59808650856662,0.0
54,MMR005D003,Monywa,မုံရွာခရိုင်,ခရိုင်,District,"မုံရွာခရိုင်, စစ်ကိုင်းတိုင်း (Sagaing), Myanmar","(22.21360045, 95.3422251118846, 0.0)",22.21360045,95.3422251118846,0.0
55,MMR005D004,Katha,ကသာခရိုင်,ခရိုင်,District,"ကသာခရိုင်, စစ်ကိုင်းတိုင်း (Sagaing), 50204, Myanmar","(24.2196736, 95.8709264404221, 0.0)",24.2196736,95.8709264404221,0.0
56,MMR005D005,Kale,ကလေးခရိုင်,ခရိုင်,District,"ကလေးခရိုင်, စစ်ကိုင်းတိုင်း (Sagaing), 50501, Myanmar","(22.95318855, 94.44428280361797, 0.0)",22.95318855,94.44428280361797,0.0
57,MMR005D006,Tamu,တမူးခရိုင်,ခရိုင်,District,"တမူးခရိုင်, စစ်ကိုင်းတိုင်း (Sagaing), Myanmar","(24.18735435, 94.39209374929968, 0.0)",24.18735435,94.39209374929968,0.0
58,MMR005D007,Mawlaik,မော်လိုက်ခရိုင်,ခရိုင်,District,"မော်လိုက်ခရိုင်, စစ်ကိုင်းတိုင်း (Sagaing), 02061, Myanmar","(23.94729085, 94.75674582726424, 0.0)",23.94729085,94.75674582726424,0.0
59,MMR005D008,Hkamti,ခန္တီးခရိုင်,ခရိုင်,District,"ခန္တီးခရိုင်, စစ်ကိုင်းတိုင်း (Sagaing), Myanmar","(25.8372047, 95.5780636154928, 0.0)",25.8372047,95.5780636154928,0.0
60,MMR005D009,Yinmarbin,ယင်းမာပင်ခရိုင်,ခရိုင်,District,"ယင်းမာပင်ခရိုင်, စစ်ကိုင်းတိုင်း (Sagaing), Myanmar","(22.30912875, 94.69225062725724, 0.0)",22.30912875,94.69225062725724,0.0
61,MMR005D010,Kanbalu,ကန့်ဘလူခရိုင်,ခရိုင်,District,,,,,
62,MMR005D011,Kawlin,ကောလင်းခရိုင်,ခရိုင်,District,,,,,
63,MMR006D001,Dawei,ထားဝယ်ခရိုင်,ခရိုင်,District,"ခရိုင်သစ်တောရုံး, ရဲရိပ်သာလမ်း, အနောက်မြို့တွင်း, အနောက်မြို့တွင်းရပ်ကွက်, ထားဝယ်, Dawei District, Tanintharyi Region, 60101, Myanmar","(14.0742997, 98.1956563, 0.0)",14.0742997,98.1956563,0.0
64,MMR006D002,Myeik,မြိတ်ခရိုင်,ခရိုင်,District,,,,,
65,MMR006D003,Kawthoung,ကော့သောင်းခရိုင်,ခရိုင်,District,,,,,
66,MMR007D001,Bago,ပဲခူးခရိုင်,ခရိုင်,District,"ပဲခူးခရိုင်, ပဲခူးတိုင်းဒေသကြီး အရှေ့ခြမ်း, ပဲခူးတိုင်းဒေသကြီး (Bago), Myanmar","(17.6596964, 96.64603025197206, 0.0)",17.6596964,96.64603025197206,0.0
67,MMR007D002,Taungoo,တောင်ငူခရိုင်,ခရိုင်,District,"တောင်ငူခရိုင်, ပဲခူးတိုင်းဒေသကြီး အရှေ့ခြမ်း, ပဲခူးတိုင်းဒေသကြီး (Bago), Myanmar","(18.8094312, 96.23637270607415, 0.0)",18.8094312,96.23637270607415,0.0
68,MMR008D001,Pyay,ပြည်ခရိုင်,ခရိုင်,District,"ပြည်ခရိုင, ပဲခူးတိုင်းဒေသကြီး အနောက်ခြမ်း, ပဲခူးတိုင်းဒေသကြီး (Bago), Myanmar","(18.7742554, 95.26005035391995, 0.0)",18.7742554,95.26005035391995,0.0
69,MMR008D002,Thayarwady,သာယာဝတီခရိုင်,ခရိုင်,District,"သာယာဝတီခရိုင, ပဲခူးတိုင်းဒေသကြီး အနောက်ခြမ်း, ပဲခူးတိုင်းဒေသကြီး (Bago), Myanmar","(18.128294099999998, 95.76784958953387, 0.0)",18.128294099999998,95.76784958953387,0.0
70,MMR009D001,Magway,မကွေးခရိုင်,ခရိုင်,District,"မကွေးခရိုင်, မကွေးတိုင်းဒေသကြီး, Myanmar","(20.28448155, 95.32974270773789, 0.0)",20.28448155,95.32974270773789,0.0
71,MMR009D002,Minbu,မင်းဘူးခရိုင်,ခရိုင်,District,"မင်းဘူးခရိုင်, မကွေးတိုင်းဒေသကြီး, Myanmar","(20.346157599999998, 94.47291462949808, 0.0)",20.346157599999998,94.47291462949808,0.0
72,MMR009D003,Thayet,သရက်ခရိုင်,ခရိုင်,District,"သရက်ခရိုင်, မကွေးတိုင်းဒေသကြီး, 04151, Myanmar","(19.41586005, 95.14195451895446, 0.0)",19.41586005,95.14195451895446,0.0
73,MMR009D004,Pakokku,ပခုက္ကူခရိုင်,ခရိုင်,District,"ပခုက္ကူခရိုင်, မကွေးတိုင်းဒေသကြီး, Myanmar","(21.3541862, 94.74858402127207, 0.0)",21.3541862,94.74858402127207,0.0
74,MMR009D005,Gangaw,ဂန့်ဂေါခရိုင်,ခရိုင်,District,,,,,
75,MMR010D001,Mandalay,မန္တလေးခရိုင်,ခရိုင်,District,"မန္တလေးခရိုင်, မန္တလေးတိုင်း, Myanmar","(21.9700209, 96.15576508785733, 0.0)",21.9700209,96.15576508785733,0.0
76,MMR010D002,Pyinoolwin,ပြင်ဦးလွင်ခရိုင်,ခရိုင်,District,"ပြင်ဦးလွင်ခရိုင်, မန္တလေးတိုင်း, Myanmar","(22.6760008, 96.06948842110029, 0.0)",22.6760008,96.06948842110029,0.0
77,MMR010D003,Kyaukse,ကျောက်ဆည်ခရိုင်,ခရိုင်,District,"ကျောက်ဆည်ခရိုင်, မန္တလေးတိုင်း, Myanmar","(21.57803905, 96.1521055727707, 0.0)",21.57803905,96.1521055727707,0.0
78,MMR010D004,Myingyan,မြင်းခြံခရိုင်,ခရိုင်,District,"မြင်းခြံခရိုင်, မန္တလေးတိုင်း, Myanmar","(21.4713348, 95.64288849140769, 0.0)",21.4713348,95.64288849140769,0.0
79,MMR010D005,Nyaung-U,ညောင်ဦးခရိုင်,ခရိုင်,District,"ညောင်ဦးခရိုင်, မန္တလေးတိုင်း, Myanmar","(20.928028, 95.16734599114011, 0.0)",20.928028,95.16734599114011,0.0
80,MMR010D006,Yamethin,ရမည်းသင်းခရိုင်,ခရိုင်,District,"ရမည်းသင်းခရိုင်, မန္တလေးတိုင်း, +959, Myanmar","(20.4849452, 96.1068811180073, 0.0)",20.4849452,96.1068811180073,0.0
81,MMR010D007,Meiktila,မိတ္ထီလာခရိုင်,ခရိုင်,District,"မိတ္ထီလာခရိုင်, မန္တလေးတိုင်း, Myanmar","(20.9582957, 95.89563804971712, 0.0)",20.9582957,95.89563804971712,0.0
82,MMR011D001,Mawlamyine,မော်လမြိုင်ခရိုင်,ခရိုင်,District,"မော်လမြိုင်ခရိုင် စက်မှုကြီးကြပ်ရေးနှင့်စစ်ဆေးရေးရုံး, ကျိုက်မယောလမ်း, San Gyi, မော်လမြိုင်, Mawlamyine District, Mon, 0000004, Myanmar","(16.4576851, 97.6741792, 0.0)",16.4576851,97.6741792,0.0
83,MMR011D002,Thaton,သထုံခရိုင်,ခရိုင်,District,,,,,
84,MMR012D001,Sittwe,စစ်တွေခရိုင်,ခရိုင်,District,"စစ်တွေခရိုင, ရခိုင်ပြည်နယ် (Rakhine), 043, Myanmar","(20.565939049999997, 92.90792053530956, 0.0)",20.565939049999997,92.90792053530956,0.0
85,MMR012D002,Maungdaw,မောင်တောခရိုင်,ခရိုင်,District,,,,,
86,MMR012D003,Kyaukpyu,ကျောက်ဖြူခရိုင်,ခရိုင်,District,"ကျောက်ဖြူခရိုင်, ရခိုင်ပြည်နယ် (Rakhine), 07151, Myanmar","(19.70784905, 94.06795492288285, 0.0)",19.70784905,94.06795492288285,0.0
87,MMR012D004,Thandwe,သံတွဲခရိုင်,ခရိုင်,District,,,,,
88,MMR012D005,Mrauk-U,မြောက်ဦးခရိုင်,ခရိုင်,District,,,,,
89,MMR013D001,Yangon (North),ရန်ကုန်(မြောက်ပိုင်း),ခရိုင်,District,,,,,
90,MMR013D002,Yangon (East),ရန်ကုန်(အရှေ့ပိုင်း),ခရိုင်,District,"ရန်ကုန် အရှေ့ပိုင်း တက္ကသိုလ် East Yangon University, အမှတ် (၆) လမ်းမကြီး, ကရင္ဆိပ္ ေက်းရြာ, သန်လျင်, ရန်ကုန်တိုင်းဒေသကြီး, 11291, Myanmar","(16.7370058, 96.28581977336941, 0.0)",16.7370058,96.28581977336941,0.0
91,MMR013D003,Yangon (South),ရန်ကုန်(တောင်ပိုင်း),ခရိုင်,District,,,,,
92,MMR013D004,Yangon (West),ရန်ကုန်(အနောက်ပိုင်း),ခရိုင်,District,"ရန်ကုန် အနောက်ပိုင်း ဆေးရုံကြီး, အောက်ကြည့်မြင်တိုင်လမ်း, ကြည့်မြင်တိုင်, ရန်ကုန်, Western District, ရန်ကုန်တိုင်းဒေသကြီး, 000000, Myanmar","(16.795508849999997, 96.12545198923854, 0.0)",16.795508849999997,96.12545198923854,0.0
93,MMR014D001,Taunggyi,တောင်ကြီးခရိုင်,ခရိုင်,District,"တောင်ကြီးခရိုင, ရှမ်းပြည်နယ်တောင်ပိုင်း, ရှမ်းပြည်နယ် Shan State, Myanmar","(20.784723149999998, 97.01084985427684, 0.0)",20.784723149999998,97.01084985427684,0.0
94,MMR014D002,Loilen,လွိုင်လင်ခရိုင်,ခရိုင်,District,"လွိုင်လင်ခရိုင်, ရှမ်းပြည်နယ်တောင်ပိုင်း, ရှမ်းပြည်နယ် Shan State, Myanmar","(21.289423900000003, 98.05453167694584, 0.0)",21.289423900000003,98.05453167694584,0.0
95,MMR014D003,Langkho,လင်းခေးခရိုင်,ခရိုင်,District,"လင်းခေးခရိုင်, ရှမ်းပြည်နယ်တောင်ပိုင်း, ရှမ်းပြည်နယ် Shan State, Myanmar","(20.27182745, 98.06900151515325, 0.0)",20.27182745,98.06900151515325,0.0
96,MMR015D001,Lashio,လားရှိုးခရိုင်,ခရိုင်,District,"လားရှိုးခရိုင်, ရှမ်းပြည်နယ်မြောက်ပိုင်း, ရှမ်းပြည်နယ် Shan State, 06301, Myanmar","(22.6202164, 98.19735374741039, 0.0)",22.6202164,98.19735374741039,0.0
97,MMR015D002,Muse,မူဆယ်ခရိုင်,ခရိုင်,District,"မူဆယ်ခရိုင်, ရှမ်းပြည်နယ်မြောက်ပိုင်း, ရှမ်းပြည်နယ် Shan State, Myanmar","(23.713138649999998, 97.96373437575659, 0.0)",23.713138649999998,97.96373437575659,0.0
98,MMR015D003,Kyaukme,ကျောက်မဲခရိုင်,ခရိုင်,District,"ကျောက်မဲခရိုင်, ရှမ်းပြည်နယ်မြောက်ပိုင်း, ရှမ်းပြည်နယ် Shan State, Myanmar","(22.8165491, 97.08869171518293, 0.0)",22.8165491,97.08869171518293,0.0
99,MMR015D004,Kunlong,ကွမ်းလုံခရိုင်,ခရိုင်,District,"ကွမ်းလုံခရိုင်, ရှမ်းပြည်နယ်မြောက်ပိုင်း, ရှမ်းပြည်နယ် Shan State, Myanmar","(23.455502699999997, 98.6161010406709, 0.0)",23.455502699999997,98.6161010406709,0.0
100,MMR015D005,Laukkaing,လောက်ကိုင်ခရိုင်,ခရိုင်,District,"老街县(လောက်ကိုင်ခရိုင်), ရှမ်းပြည်နယ်မြောက်ပိုင်း, ရှမ်းပြည်နယ် Shan State, Myanmar","(23.80732405, 98.56468115094572, 0.0)",23.80732405,98.56468115094572,0.0
101,MMR015D006,Hopang,ဟိုပန်ခရိုင်,ခရိုင်,District,"ဟိုပန်ခရိုင်, ရှမ်းပြည်နယ်မြောက်ပိုင်း, ရှမ်းပြည်နယ် Shan State, Wa State Northern Region, 150402, Myanmar","(23.099787, 98.82001261843743, 0.0)",23.099787,98.82001261843743,0.0
102,MMR015D007,Matman,မက်မန်းခရိုင်,ခရိုင်,District,"မက်မန်းခရိုင် Matman, ရှမ်းပြည်နယ်မြောက်ပိုင်း, ရှမ်းပြည်နယ် Shan State, Wa State Northern Region, Myanmar","(22.18777815, 98.89247307875024, 0.0)",22.18777815,98.89247307875024,0.0
103,MMR015D008,Mongmit,မိုးမိတ်ခရိုင်,ခရိုင်,District,"မိုးမိတ်ခရိုင်, ရှမ်းပြည်နယ်မြောက်ပိုင်း, ရှမ်းပြည်နယ် Shan State, Myanmar","(23.526243049999998, 96.73592404316932, 0.0)",23.526243049999998,96.73592404316932,0.0
104,MMR016D001,Kengtung,ကျိုင်းတုံခရိုင်,ခရိုင်,District,"ကျိုင်းတုံခရိုင်, ရှမ်းပြည်နယ် အရှေ့ပိုင်း, ရှမ်းပြည်နယ် Shan State, Myanmar","(21.56494035, 99.71225542974153, 0.0)",21.56494035,99.71225542974153,0.0
105,MMR016D002,Monghsat,မိုင်းဆတ်ခရိုင်,ခရိုင်,District,"မိုင်းဆတ်ခရိုင်, ရှမ်းပြည်နယ် အရှေ့ပိုင်း, ရှမ်းပြည်နယ် Shan State, Myanmar","(20.68559705, 99.02037840510232, 0.0)",20.68559705,99.02037840510232,0.0
106,MMR016D003,Tachileik,တာချီလိတ်ခရိုင်,ခရိုင်,District,"တာချီလိတ်ခရိုင်, ရှမ်းပြည်နယ် အရှေ့ပိုင်း, ရှမ်းပြည်နယ် Shan State, Myanmar","(20.6816952, 99.85024901619327, 0.0)",20.6816952,99.85024901619327,0.0
107,MMR016D004,Monghpyak,မိုင်းဖြတ်ခရိုင်,ခရိုင်,District,"မိုင်းဖြတ်ခရိုင်, ရှမ်းပြည်နယ် အရှေ့ပိုင်း, ရှမ်းပြည်နယ် Shan State, Myanmar","(21.25428215, 100.33782005537088, 0.0)",21.25428215,100.33782005537088,0.0
108,MMR017D001,Pathein,ပုသိမ်ခရိုင်,ခရိုင်,District,,,,,
109,MMR017D002,Hinthada,ဟင်္သာတခရိုင်,ခရိုင်,District,,,,,
110,MMR017D003,Myaungmya,မြောင်းမြခရိုင်,ခရိုင်,District,,,,,
111,MMR017D004,Labutta,လပွတ္တာခရိုင်,ခရိုင်,District,,,,,
112,MMR017D005,Maubin,မအူပင်ခရိုင်,ခရိုင်,District,,,,,
113,MMR017D006,Pyapon,ဖျာပုံခရိုင်,ခရိုင်,District,,,,,
114,MMR018D001,Oke Ta Ra,ဥတ္တရခရိုင်,ခရိုင်,District,"ဥတ္တရခရိုင်, နေပြည်တော် ပြည်ထောင်စုနယ်မြ, 15013, Myanmar","(20.03816835, 96.11588628032888, 0.0)",20.03816835,96.11588628032888,0.0
115,MMR018D002,Det Khi Na,ဒက္ခိဏခရိုင်,ခရိုင်,District,"ဒက္ခိဏခရိုင်, နေပြည်တော် ပြည်ထောင်စုနယ်မြ, Myanmar","(19.67891285, 96.1989244855555, 0.0)",19.67891285,96.1989244855555,0.0
116,MMR001001,Myitkyina,မြစ်ကြီးနား,မြို့နယ်,Township,"မြစ်ကြီးနား, မြစ်ကြီးနားခရိုင်, ကချင်ပြည်နယ် (Kachin), Myanmar","(25.3833313, 97.3999925, 0.0)",25.3833313,97.3999925,0.0
117,MMR001002,Waingmaw,ဝိုင်းမော်,မြို့နယ်,Township,"ဝိုင်းမော်, မြစ်ကြီးနားခရိုင်, ကချင်ပြည်နယ် (Kachin), Myanmar","(25.3537725, 97.4440251, 0.0)",25.3537725,97.4440251,0.0
118,MMR001003,Injangyang,အင်ဂျန်းယန်,မြို့နယ်,Township,"အင်ဂျန်းယန်, မြစ်ကြီးနားခရိုင်, ကချင်ပြည်နယ် (Kachin), Myanmar","(25.8303708, 97.728043, 0.0)",25.8303708,97.728043,0.0
119,MMR001004,Tanai,တနိုင်း,မြို့နယ်,Township,"တနိုင်း, မြစ်ကြီးနားခရိုင်, ကချင်ပြည်နယ် (Kachin), Myanmar","(26.403813800000002, 96.60279485997367, 0.0)",26.403813800000002,96.60279485997367,0.0
120,MMR001005,Chipwi,ချီ​ဖွေ,မြို့နယ်,Township,,,,,
121,MMR001006,Tsawlaw,ဆော့လော်,မြို့နယ်,Township,"ဆော့လော်, မြစ်ကြီးနားခရိုင်, ကချင်ပြည်နယ် (Kachin), Myanmar","(26.1537756, 98.2711332, 0.0)",26.1537756,98.2711332,0.0
122,MMR001007,Mohnyin,မိုးညှင်း,မြို့နယ်,Township,"မိုးညှင်း, မိုးညှင်းခရိုင်, ကချင်ပြည်နယ် (Kachin), Myanmar","(24.779057, 96.373198, 0.0)",24.779057,96.373198,0.0
123,MMR001008,Mogaung,မိုးကောင်း,မြို့နယ်,Township,"မိုးကောင်း, မိုးညှင်းခရိုင်, ကချင်ပြည်နယ် (Kachin), ၁၁၀၂, Myanmar","(25.3018588, 96.9416995, 0.0)",25.3018588,96.9416995,0.0
124,MMR001009,Hpakant,ဖားကန့်,မြို့နယ်,Township,"ဖားကန့်, မိုးညှင်းခရိုင်, ကချင်ပြည်နယ် (Kachin), 1161, Myanmar","(25.6123483, 96.3125388, 0.0)",25.6123483,96.3125388,0.0
125,MMR001010,Bhamo,ဗန်းမော်,မြို့နယ်,Township,"ဗန်းမော်, ဗန်းမော်ခရိုင်, ကချင်ပြည်နယ် (Kachin), 074, Myanmar","(24.266667, 97.233333, 0.0)",24.266667,97.233333,0.0
126,MMR001011,Shwegu,ရွှေကူ,မြို့နယ်,Township,"ရွှေကူ, ဗန်းမော်ခရိုင်, ကချင်ပြည်နယ် (Kachin), Myanmar","(24.2278257, 96.7874052, 0.0)",24.2278257,96.7874052,0.0
127,MMR001012,Momauk,မိုးမောက်,မြို့နယ်,Township,"မိုးမောက်, ဗန်းမော်ခရိုင်, ကချင်ပြည်နယ် (Kachin), Myanmar","(24.2493952, 97.3459136, 0.0)",24.2493952,97.3459136,0.0
128,MMR001013,Mansi,မံစီ,မြို့နယ်,Township,"မံစီ, ဗန်းမော်ခရိုင်, ကချင်ပြည်နယ် (Kachin), Myanmar","(23.9183825, 97.29555023001953, 0.0)",23.9183825,97.29555023001953,0.0
129,MMR001014,Puta-O,ပူတာအို,မြို့နယ်,Township,"ပူတာအို, ပူတာအိုခရိုင်, ကချင်ပြည်နယ် (Kachin), 01051, Myanmar","(27.3097462, 97.4173317, 0.0)",27.3097462,97.4173317,0.0
130,MMR001015,Sumprabum,ဆွမ်ပရာဘွမ်,မြို့နယ်,Township,"ဆွမ်ပရာဘွမ်, ပူတာအိုခရိုင်, ကချင်ပြည်နယ် (Kachin), Myanmar","(26.5448191, 97.5683626, 0.0)",26.5448191,97.5683626,0.0
131,MMR001016,Machanbaw,မချမ်းဘော,မြို့နယ်,Township,"မချမ်းဘော, ပူတာအိုခရိုင်, ကချင်ပြည်နယ် (Kachin), Myanmar","(27.2821236, 97.5895433, 0.0)",27.2821236,97.5895433,0.0
132,MMR001017,Nawngmun,နောင်မွန်း,မြို့နယ်,Township,"နောင်မွန်း, ပူတာအိုခရိုင်, ကချင်ပြည်နယ် (Kachin), Myanmar","(27.5065429, 97.8143815, 0.0)",27.5065429,97.8143815,0.0
133,MMR001018,Khaunglanhpu,ခေါင်လန်ဖူး,မြို့နယ်,Township,"ခေါင်လန်ဖူး, ပူတာအိုခရိုင်, ကချင်ပြည်နယ် (Kachin), Myanmar","(27.061073, 98.3599129, 0.0)",27.061073,98.3599129,0.0
134,MMR002001,Loikaw,လွိုင်ကော်,မြို့နယ်,Township,"လွိုင်ကော်, လွိုင်ကော်‌ခရိုင, ကယားပြည်နယ်‌ (Kayah), Myanmar","(19.674167, 97.2094441, 0.0)",19.674167,97.2094441,0.0
135,MMR002002,Demoso,ဒီးမော့ဆို,မြို့နယ်,Township,"ဒီးမော့ဆို, လွိုင်ကော်‌ခရိုင, ကယားပြည်နယ်‌ (Kayah), Myanmar","(19.45763175, 97.2828233062694, 0.0)",19.45763175,97.2828233062694,0.0
136,MMR002003,Hpruso,ဖရူဆို,မြို့နယ်,Township,"ဖရူဆို, လွိုင်ကော်‌ခရိုင, ကယားပြည်နယ်‌ (Kayah), 100101, Myanmar","(19.413286, 97.122673, 0.0)",19.413286,97.122673,0.0
137,MMR002004,Shadaw,ရှားတော,မြို့နယ်,Township,"ရှားတော, ဥတ္တရခရိုင်, နေပြည်တော် ပြည်ထောင်စုနယ်မြ, Myanmar","(20.105061, 96.166191, 0.0)",20.105061,96.166191,0.0
138,MMR002005,Bawlake,ဘောလခဲ,မြို့နယ်,Township,"ဘောလခဲ, ဘော်လခဲခရိုင, ကယားပြည်နယ်‌ (Kayah), Myanmar","(19.1710509, 97.3421041, 0.0)",19.1710509,97.3421041,0.0
139,MMR002006,Hpasawng,ဖားဆောင်း,မြို့နယ်,Township,,,,,
140,MMR002007,Mese,မယ်စဲ,မြို့နယ်,Township,"မယ်စဲ, ဘော်လခဲခရိုင, ကယားပြည်နယ်‌ (Kayah), Myanmar","(18.7451515, 97.5431188409926, 0.0)",18.7451515,97.5431188409926,0.0
141,MMR003001,Hpa-An,ဘားအံ,မြို့နယ်,Township,"ဘားအံ, ဘားအံခရိုင်, ကရင်ပြည်နယ် (Kayin), Myanmar","(16.8902634, 97.6362745, 0.0)",16.8902634,97.6362745,0.0
142,MMR003002,Hlaingbwe,လှိုင်းဘွဲ့,မြို့နယ်,Township,"လှိုင်းဘွဲ့, ဘားအံခရိုင်, ကရင်ပြည်နယ် (Kayin), Myanmar","(17.1251593, 97.8190019, 0.0)",17.1251593,97.8190019,0.0
143,MMR003003,Hpapun,ဖာပွန်,မြို့နယ်,Township,"ဖာပွန်, ဖာပွန်ခရိုင်, ကရင်ပြည်နယ် (Kayin), Myanmar","(18.06496, 97.444878, 0.0)",18.06496,97.444878,0.0
144,MMR003004,Thandaunggyi,သံတောင်ကြီး,မြို့နယ်,Township,"သံတောင်ကြီး, ဘားအံခရိုင်, ကရင်ပြည်နယ် (Kayin), Myanmar","(19.0545611, 96.74071154035488, 0.0)",19.0545611,96.74071154035488,0.0
145,MMR003005,Myawaddy,မြဝတီ,မြို့နယ်,Township,"မြဝတီ, မြဝတီခရိုင်, ကရင်ပြည်နယ် (Kayin), 13052, Myanmar","(16.6871674, 98.507114, 0.0)",16.6871674,98.507114,0.0
146,MMR003006,Kawkareik,ကော့ကရိတ်,မြို့နယ်,Township,"ကော့ကရိတ်, ကော့ကရိတ်ခရိုင်, ကရင်ပြည်နယ် (Kayin), Myanmar","(16.555531, 98.23996, 0.0)",16.555531,98.23996,0.0
147,MMR003007,Kyainseikgyi,ကြာအင်းဆိပ်ကြီး,မြို့နယ်,Township,"ကြာအင်းဆိပ်ကြီး, ကော့ကရိတ်ခရိုင်, ကရင်ပြည်နယ် (Kayin), 170757, Myanmar","(16.0413857, 98.1209715, 0.0)",16.0413857,98.1209715,0.0
148,MMR004001,Falam,ဖလမ်း,မြို့နယ်,Township,"ဖလမ်း, ဖလမ်းခရိုင်, ချင်းပြည်နယ်‌, Myanmar","(22.9139433, 93.6790091, 0.0)",22.9139433,93.6790091,0.0
149,MMR004002,Hakha,ဟားခါး,မြို့နယ်,Township,"ဟားခါး, ဟားခါးခရိုင်, ချင်းပြည်နယ်‌, 03011, Myanmar","(22.6427551, 93.6096217, 0.0)",22.6427551,93.6096217,0.0
150,MMR004003,Thantlang,ထန်တလန်,မြို့နယ်,Township,"ထန်တလန်, ဟားခါးခရိုင်, ချင်းပြည်နယ်‌, Myanmar","(22.69843, 93.4278, 0.0)",22.69843,93.4278,0.0
151,MMR004004,Tedim,တီးတိန်,မြို့နယ်,Township,"တီးတိန်, ဖလမ်းခရိုင်, ချင်းပြည်နယ်‌, 03042, Myanmar","(23.3717349, 93.655654, 0.0)",23.3717349,93.655654,0.0
152,MMR004005,Tonzang,တွန်းဇန်,မြို့နယ်,Township,,,,,
153,MMR004006,Mindat,မင်းတပ်,မြို့နယ်,Township,"မင်းတပ်, မင်းတပ်ခရိုင်, ချင်းပြည်နယ်‌, Myanmar","(21.371757, 93.973654, 0.0)",21.371757,93.973654,0.0
154,MMR004007,Matupi,မတူပီ,မြို့နယ်,Township,"မတူပီ, မင်းတပ်ခရိုင်, ချင်းပြည်နယ်‌, Myanmar","(21.596511, 93.444026, 0.0)",21.596511,93.444026,0.0
155,MMR004008,Kanpetlet,ကန်ပက်လက်,မြို့နယ်,Township,"ကန်ပက်လက်, မင်းတပ်ခရိုင်, ချင်းပြည်နယ်‌, Myanmar","(21.1933082, 94.0586224, 0.0)",21.1933082,94.0586224,0.0
156,MMR004009,Paletwa,ပလက်ဝ,မြို့နယ်,Township,"ပလက်ဝ, မင်းတပ်ခရိုင်, ချင်းပြည်နယ်‌, Myanmar","(21.3064037, 92.8538238, 0.0)",21.3064037,92.8538238,0.0
157,MMR005001,Sagaing,စစ်ကိုင်း,မြို့နယ်,Township,"စစ်ကိုင်း, စစ်ကိုင်းခရိုင်, စစ်ကိုင်းတိုင်း (Sagaing), Myanmar","(21.8774215, 95.9839956, 0.0)",21.8774215,95.9839956,0.0
158,MMR005002,Myinmu,မြင်းမူ,မြို့နယ်,Township,"မြင်းမူ, စစ်ကိုင်းခရိုင်, စစ်ကိုင်းတိုင်း (Sagaing), Myanmar","(21.92514, 95.575851, 0.0)",21.92514,95.575851,0.0
159,MMR005003,Myaung,မြောင်,မြို့နယ်,Township,"မြောင်, စစ်ကိုင်းခရိုင်, စစ်ကိုင်းတိုင်း (Sagaing), Myanmar","(21.833411, 95.42128, 0.0)",21.833411,95.42128,0.0
160,MMR005004,Shwebo,ရွှေဘို,မြို့နယ်,Township,"ရွှေဘို, ရွှေဘိုခရိုင်, စစ်ကိုင်းတိုင်း (Sagaing), Myanmar","(22.5666618, 95.6999989, 0.0)",22.5666618,95.6999989,0.0
161,MMR005005,Khin-U,ခင်ဦး,မြို့နယ်,Township,"ခင်ဦး, ရွှေဘိုခရိုင်, စစ်ကိုင်းတိုင်း (Sagaing), Myanmar","(22.771583, 95.6217428, 0.0)",22.771583,95.6217428,0.0
162,MMR005006,Wetlet,ဝက်လက်,မြို့နယ်,Township,"ဝက်လက်, ရွှေဘိုခရိုင်, စစ်ကိုင်းတိုင်း (Sagaing), Myanmar","(22.3680785, 95.7880232, 0.0)",22.3680785,95.7880232,0.0
163,MMR005007,Kanbalu,ကန့်ဘလူ,မြို့နယ်,Township,"ကန့်ဘလူ, စစ်ကိုင်းတိုင်း (Sagaing), Myanmar","(23.27235795, 95.40190856658666, 0.0)",23.27235795,95.40190856658666,0.0
164,MMR005008,Kyunhla,ကျွန်းလှ,မြို့နယ်,Township,"ကျွန်းလှ, ကျွန်းစု, Myeik District, Tanintharyi Region, Myanmar","(12.2070692, 98.14151920028337, 0.0)",12.2070692,98.14151920028337,0.0
165,MMR005009,Ye-U,ရေဦး,မြို့နယ်,Township,"ရေဦး, ကန့်ဘလူ, စစ်ကိုင်းတိုင်း (Sagaing), Myanmar","(22.85732055, 95.03007476076434, 0.0)",22.85732055,95.03007476076434,0.0
166,MMR005010,Tabayin,ဒီပဲယင်း,မြို့နယ်,Township,"ဒီပဲယင်း, ရွှေဘိုခရိုင်, စစ်ကိုင်းတိုင်း (Sagaing), Myanmar","(22.685286, 95.321213, 0.0)",22.685286,95.321213,0.0
167,MMR005011,Taze,တန့်ဆည်,မြို့နယ်,Township,"အထက တန့်ဆည်, ခရိုင်ချင်းဆက်လမ်းမကြိး, အက်တေားကျေးရွာ, ကန့်ဘလူ, စစ်ကိုင်းတိုင်း (Sagaing), Myanmar","(22.94774425, 95.40061675770531, 0.0)",22.94774425,95.40061675770531,0.0
168,MMR005012,Monywa,မုံရွာ,မြို့နယ်,Township,"မုံရွာ, မုံရွာခရိုင်, စစ်ကိုင်းတိုင်း (Sagaing), Myanmar","(22.1182175, 95.1324747, 0.0)",22.1182175,95.1324747,0.0
169,MMR005013,Budalin,ဘုတလင်,မြို့နယ်,Township,"ဘုတလင်, မုံရွာခရိုင်, စစ်ကိုင်းတိုင်း (Sagaing), Myanmar","(22.3871145, 95.1436405, 0.0)",22.3871145,95.1436405,0.0
170,MMR005014,Ayadaw,အရာတော်,မြို့နယ်,Township,"အရာတော်, မုံရွာခရိုင်, စစ်ကိုင်းတိုင်း (Sagaing), Myanmar","(22.28525, 95.450677, 0.0)",22.28525,95.450677,0.0
171,MMR005015,Chaung-U,ချောင်းဦး,မြို့နယ်,Township,"ချောင်းဦး, မုံရွာခရိုင်, စစ်ကိုင်းတိုင်း (Sagaing), Myanmar","(21.95693, 95.273628, 0.0)",21.95693,95.273628,0.0
172,MMR005016,Yinmarbin,ယင်းမာပင်,မြို့နယ်,Township,"ယင်းမာပင်, ယင်းမာပင်ခရိုင်, စစ်ကိုင်းတိုင်း (Sagaing), Myanmar","(22.077789, 94.900139, 0.0)",22.077789,94.900139,0.0
173,MMR005017,Kani,ကနီ,မြို့နယ်,Township,"ကနီ, ယင်းမာပင်ခရိုင်, စစ်ကိုင်းတိုင်း (Sagaing), Myanmar","(22.43291, 94.848469, 0.0)",22.43291,94.848469,0.0
174,MMR005018,Salingyi,ဆားလင်းကြီး,မြို့နယ်,Township,"ဆားလင်းကြီး, ယင်းမာပင်ခရိုင်, စစ်ကိုင်းတိုင်း (Sagaing), Myanmar","(21.9724628, 95.0801873, 0.0)",21.9724628,95.0801873,0.0
175,MMR005019,Pale,ပုလဲ,မြို့နယ်,Township,"ပုလဲ, ယင်းမာပင်ခရိုင်, စစ်ကိုင်းတိုင်း (Sagaing), Myanmar","(21.933992, 94.874673, 0.0)",21.933992,94.874673,0.0
176,MMR005020,Katha,ကသာ,မြို့နယ်,Township,"ကသာ, ကသာခရိုင်, စစ်ကိုင်းတိုင်း (Sagaing), 50204, Myanmar","(24.1716852, 96.3430992, 0.0)",24.1716852,96.3430992,0.0
177,MMR005021,Indaw,အင်းတော်,မြို့နယ်,Township,"အင်းတော်, ကသာခရိုင်, စစ်ကိုင်းတိုင်း (Sagaing), Myanmar","(24.222515, 96.14167, 0.0)",24.222515,96.14167,0.0
178,MMR005022,Tigyaing,ထီးချိုင့်,မြို့နယ်,Township,"ထီးချိုင့်, ကသာခရိုင်, စစ်ကိုင်းတိုင်း (Sagaing), Myanmar","(23.7528084, 96.1463674, 0.0)",23.7528084,96.1463674,0.0
179,MMR005023,Banmauk,ဗန်းမောက်,မြို့နယ်,Township,"ဗန်းမောက်, ကသာခရိုင်, စစ်ကိုင်းတိုင်း (Sagaing), Myanmar","(24.4004115, 95.8561039, 0.0)",24.4004115,95.8561039,0.0
180,MMR005024,Kawlin,ကောလင်း,မြို့နယ်,Township,"ကောလင်း, ကသာခရိုင်, စစ်ကိုင်းတိုင်း (Sagaing), Myanmar","(23.794277, 95.6780844, 0.0)",23.794277,95.6780844,0.0
181,MMR005025,Wuntho,ဝန်းသို,မြို့နယ်,Township,"ဝန်းသို, ကသာခရိုင်, စစ်ကိုင်းတိုင်း (Sagaing), Myanmar","(23.8989024, 95.6855946, 0.0)",23.8989024,95.6855946,0.0
182,MMR005026,Pinlebu,ပင်လည်ဘူး,မြို့နယ်,Township,"ပင်လည်ဘူး, ကသာခရိုင်, စစ်ကိုင်းတိုင်း (Sagaing), Myanmar","(24.0904272, 95.3811532, 0.0)",24.0904272,95.3811532,0.0
183,MMR005027,Kale,ကလေး,မြို့နယ်,Township,"ကလေး, ကလေးခရိုင်, စစ်ကိုင်းတိုင်း (Sagaing), 50501, Myanmar","(23.195728, 94.0158882, 0.0)",23.195728,94.0158882,0.0
184,MMR005028,Kalewa,ကလေးဝ,မြို့နယ်,Township,"ကလေးဝ, ကလေးခရိုင်, စစ်ကိုင်းတိုင်း (Sagaing), Myanmar","(23.1986756, 94.3007869, 0.0)",23.1986756,94.3007869,0.0
185,MMR005029,Mingin,မင်းကင်း,မြို့နယ်,Township,"မင်းကင်း, ကလေးခရိုင်, စစ်ကိုင်းတိုင်း (Sagaing), Myanmar","(22.877808, 94.494197, 0.0)",22.877808,94.494197,0.0
186,MMR005030,Tamu,တမူး,မြို့နယ်,Township,"တမူး, တမူးခရိုင်, စစ်ကိုင်းတိုင်း (Sagaing), Myanmar","(24.2149165, 94.3031975, 0.0)",24.2149165,94.3031975,0.0
187,MMR005031,Mawlaik,မော်လိုက်,မြို့နယ်,Township,"မော်လိုက်, မော်လိုက်ခရိုင်, စစ်ကိုင်းတိုင်း (Sagaing), Myanmar","(23.633333, 94.416667, 0.0)",23.633333,94.416667,0.0
188,MMR005032,Paungbyin,ဖောင်းပြင်,မြို့နယ်,Township,"ဖောင်းပြင်, မော်လိုက်ခရိုင်, စစ်ကိုင်းတိုင်း (Sagaing), 02061, Myanmar","(24.1675822, 94.82962633552835, 0.0)",24.1675822,94.82962633552835,0.0
189,MMR005033,Hkamti,ခန္တီး,မြို့နယ်,Township,"ခန္တီး, ခန္တီးခရိုင်, စစ်ကိုင်းတိုင်း (Sagaing), Myanmar","(26.0021393, 95.6912728, 0.0)",26.0021393,95.6912728,0.0
190,MMR005034,Homalin,ဟုမ္မလင်း,မြို့နယ်,Township,"ဟုမ္မလင်း, ခန္တီးခရိုင်, စစ်ကိုင်းတိုင်း (Sagaing), Myanmar","(24.8688705, 94.9168779, 0.0)",24.8688705,94.9168779,0.0
191,MMR005035,Lay Shi,လေရှီး,မြို့နယ်,Township,"လေရှီး, နာဂ ကိုယ်ပိုင်အုပ်ချုပ်ခွင့်ရ ဒေသ, ခန္တီးခရိုင်, စစ်ကိုင်းတိုင်း (Sagaing), Myanmar","(25.4463832, 94.9560249, 0.0)",25.4463832,94.9560249,0.0
192,MMR005036,Lahe,လဟယ်,မြို့နယ်,Township,"လဟယ်, နာဂ ကိုယ်ပိုင်အုပ်ချုပ်ခွင့်ရ ဒေသ, ခန္တီးခရိုင်, စစ်ကိုင်းတိုင်း (Sagaing), Myanmar","(26.3252881, 95.4423223, 0.0)",26.3252881,95.4423223,0.0
193,MMR005037,Nanyun,နန်းယွန်း,မြို့နယ်,Township,"နန်းယွန်း, နာဂ ကိုယ်ပိုင်အုပ်ချုပ်ခွင့်ရ ဒေသ, ခန္တီးခရိုင်, စစ်ကိုင်းတိုင်း (Sagaing), Myanmar","(26.9798882, 96.1671674, 0.0)",26.9798882,96.1671674,0.0
194,MMR006001,Dawei,ထားဝယ်,မြို့နယ်,Township,"Dawei ထားဝယ်, ကျောက်ဆည်, ကျောက်ဆည်ခရိုင်, မန္တလေးတိုင်း, 05151, Myanmar","(21.583105, 96.1519011, 0.0)",21.583105,96.1519011,0.0
195,MMR006002,Launglon,လောင်းလုံး,မြို့နယ်,Township,"လောင်းလုံး, Dawei District, Tanintharyi Region, 60102, Myanmar","(13.876935549999999, 97.89963424616315, 0.0)",13.876935549999999,97.89963424616315,0.0
196,MMR006003,Thayetchaung,သရက်ချောင်း,မြို့နယ်,Township,"သရက်ချောင်း, Dawei District, Tanintharyi Region, Myanmar","(13.65614075, 98.42172453844316, 0.0)",13.65614075,98.42172453844316,0.0
197,MMR006004,Yebyu,ရေဖြူ,မြို့နယ်,Township,"ရေဖြူ, Dawei District, Tanintharyi Region, Myanmar","(14.6360285, 98.00147291482196, 0.0)",14.6360285,98.00147291482196,0.0
198,MMR006005,Myeik,မြိတ်,မြို့နယ်,Township,"မြိတ် လေဆိပ်, ကုန်းဖေါက်လမ်း Kone Phauk Road, Shwe Pay ရွေပေး, မြိတ်မြို့, Myeik District, Tanintharyi Region, 14051, Myanmar","(12.437362199999999, 98.62078837812436, 0.0)",12.437362199999999,98.62078837812436,0.0
199,MMR006006,Kyunsu,ကျွန်းစု,မြို့နယ်,Township,"ကျွန်းစု, Myeik District, Tanintharyi Region, 63150, Myanmar","(12.1267742, 98.09774623270837, 0.0)",12.1267742,98.09774623270837,0.0
200,MMR006007,Palaw,ပုလော,မြို့နယ်,Township,"ပုလော, Myeik District, Tanintharyi Region, Myanmar","(13.1117748, 98.19618266726906, 0.0)",13.1117748,98.19618266726906,0.0
201,MMR006008,Tanintharyi,တနင်္သာရီ,မြို့နယ်,Township,"တနင်္သာရီ, Myeik District, Tanintharyi Region, 14071, Myanmar","(12.0911435, 99.0111487, 0.0)",12.0911435,99.0111487,0.0
202,MMR006009,Kawthoung,ကော့သောင်း,မြို့နယ်,Township,"ကော့သောင်း, Kawthoung District, Tanintharyi Region, Myanmar","(10.1839426, 98.11827779792682, 0.0)",10.1839426,98.11827779792682,0.0
203,MMR006010,Bokpyin,ဘုတ်ပြင်း,မြို့နယ်,Township,"ဘုတ်ပြင်း, Kawthoung District, Tanintharyi Region, Myanmar","(11.219682500000001, 98.31206654932451, 0.0)",11.219682500000001,98.31206654932451,0.0
204,MMR007001,Bago,ပဲခူး,မြို့နယ်,Township,"ပဲခူး, ပဲခူးခရိုင်, ပဲခူးတိုင်းဒေသကြီး အရှေ့ခြမ်း, ပဲခူးတိုင်းဒေသကြီး (Bago), Myanmar","(17.336667, 96.479722, 0.0)",17.336667,96.479722,0.0
205,MMR007002,Thanatpin,သနပ်ပင်,မြို့နယ်,Township,"Tha Nat Pin သနပ်ပင်, ကျောက်ဆည်ခရိုင်, မန္တလေးတိုင်း, Myanmar","(21.8085443, 96.0825663, 0.0)",21.8085443,96.0825663,0.0
206,MMR007003,Kawa,ကဝ,မြို့နယ်,Township,"ကဝ, ပဲခူးခရိုင်, ပဲခူးတိုင်းဒေသကြီး အရှေ့ခြမ်း, ပဲခူးတိုင်းဒေသကြီး (Bago), Myanmar","(17.0891732, 96.4603044, 0.0)",17.0891732,96.4603044,0.0
207,MMR007004,Waw,ဝေါ,မြို့နယ်,Township,"ဝေါ, ပဲခူးခရိုင်, ပဲခူးတိုင်းဒေသကြီး အရှေ့ခြမ်း, ပဲခူးတိုင်းဒေသကြီး (Bago), 08071, Myanmar","(17.4771259, 96.6756871, 0.0)",17.4771259,96.6756871,0.0
208,MMR007005,Nyaunglebin,ညောင်လေးပင်,မြို့နယ်,Township,"ညောင်လေးပင်, ပဲခူးခရိုင်, ပဲခူးတိုင်းဒေသကြီး အရှေ့ခြမ်း, ပဲခူးတိုင်းဒေသကြီး (Bago), 08031, Myanmar","(17.95, 96.733333, 0.0)",17.95,96.733333,0.0
209,MMR007006,Kyauktaga,ကျောက်တံခါး,မြို့နယ်,Township,"ကျောက်တံခါး, သံတွဲခရိုင, ရခိုင်ပြည်နယ် (Rakhine), Myanmar","(18.844021, 94.346947, 0.0)",18.844021,94.346947,0.0
210,MMR007007,Daik-U,ဒိုက်ဦး,မြို့နယ်,Township,"ဒိုက်ဦး, ပဲခူးခရိုင်, ပဲခူးတိုင်းဒေသကြီး အရှေ့ခြမ်း, ပဲခူးတိုင်းဒေသကြီး (Bago), Myanmar","(17.789671, 96.669693, 0.0)",17.789671,96.669693,0.0
211,MMR007008,Shwegyin,ရွှေကျင်,မြို့နယ်,Township,"ရွှေကျင်, မြောက်ဦးခရိုင, ရခိုင်ပြည်နယ် (Rakhine), Myanmar","(20.565411, 93.321358, 0.0)",20.565411,93.321358,0.0
212,MMR007009,Taungoo,တောင်ငူ,မြို့နယ်,Township,"တောင်ငူ, တောင်ငူခရိုင်, ပဲခူးတိုင်းဒေသကြီး အရှေ့ခြမ်း, ပဲခူးတိုင်းဒေသကြီး (Bago), Myanmar","(18.9342565, 96.4326678, 0.0)",18.9342565,96.4326678,0.0
213,MMR007010,Yedashe,ရေတာရှည်,မြို့နယ်,Township,"ရေတာရှည်, တောင်ငူခရိုင်, ပဲခူးတိုင်းဒေသကြီး အရှေ့ခြမ်း, ပဲခူးတိုင်းဒေသကြီး (Bago), Myanmar","(19.156925, 96.342339, 0.0)",19.156925,96.342339,0.0
214,MMR007011,Kyaukkyi,ကျောက်ကြီး,မြို့နယ်,Township,"ကျောက်ကြီး, သံတွဲခရိုင, ရခိုင်ပြည်နယ် (Rakhine), Myanmar","(17.64929, 94.587311, 0.0)",17.64929,94.587311,0.0
215,MMR007012,Phyu,ဖြူး,မြို့နယ်,Township,"ဖြူး, တောင်ငူခရိုင်, ပဲခူးတိုင်းဒေသကြီး အရှေ့ခြမ်း, ပဲခူးတိုင်းဒေသကြီး (Bago), Myanmar","(18.483333, 96.433333, 0.0)",18.483333,96.433333,0.0
216,MMR007013,Oktwin,အုတ်တွင်း,မြို့နယ်,Township,"အုတ်တွင်း, တောင်ငူခရိုင်, ပဲခူးတိုင်းဒေသကြီး အရှေ့ခြမ်း, ပဲခူးတိုင်းဒေသကြီး (Bago), 08121, Myanmar","(18.832928, 96.413628, 0.0)",18.832928,96.413628,0.0
217,MMR007014,Htantabin,ထန်းတပင်,မြို့နယ်,Township,"ထန်းတပင်, ရန်ကုန်တိုင်းဒေသကြီး, 1111, Myanmar","(17.05755495, 95.88844688904413, 0.0)",17.05755495,95.88844688904413,0.0
218,MMR008001,Pyay,ပြည်,မြို့နယ်,Township,"ပြည်, ပြည်ခရိုင, ပဲခူးတိုင်းဒေသကြီး အနောက်ခြမ်း, ပဲခူးတိုင်းဒေသကြီး (Bago), Myanmar","(18.816667, 95.216667, 0.0)",18.816667,95.216667,0.0
219,MMR008002,Paukkhaung,ပေါက်ခေါင်း,မြို့နယ်,Township,"ပေါက်ခေါင်း, ပြည်ခရိုင, ပဲခူးတိုင်းဒေသကြီး အနောက်ခြမ်း, ပဲခူးတိုင်းဒေသကြီး (Bago), +95, Myanmar","(18.9087198, 95.5490934, 0.0)",18.9087198,95.5490934,0.0
220,MMR008003,Padaung,ပန်းတောင်း,မြို့နယ်,Township,"ပန်းတောင်း, ပြည်ခရိုင, ပဲခူးတိုင်းဒေသကြီး အနောက်ခြမ်း, ပဲခူးတိုင်းဒေသကြီး (Bago), Myanmar","(18.717974, 95.153526, 0.0)",18.717974,95.153526,0.0
221,MMR008004,Paungde,ပေါင်းတည်,မြို့နယ်,Township,"ပေါင်းတည်, ပြည်ခရိုင, ပဲခူးတိုင်းဒေသကြီး အနောက်ခြမ်း, ပဲခူးတိုင်းဒေသကြီး (Bago), Myanmar","(18.4928344, 95.5071615, 0.0)",18.4928344,95.5071615,0.0
222,MMR008005,Thegon,သဲကုန်း,မြို့နယ်,Township,"သဲကုန်း, သံတွဲခရိုင, ရခိုင်ပြည်နယ် (Rakhine), Myanmar","(18.075029, 94.482948, 0.0)",18.075029,94.482948,0.0
223,MMR008006,Shwedaung,ရွှေတောင်,မြို့နယ်,Township,"ရွှေတောင်, မြောက်ဦးခရိုင, ရခိုင်ပြည်နယ် (Rakhine), Myanmar","(20.558029, 93.313911, 0.0)",20.558029,93.313911,0.0
224,MMR008007,Thayarwady,သာယာဝတီ,မြို့နယ်,Township,"သာယာဝတီ, သာယာဝတီခရိုင, ပဲခူးတိုင်းဒေသကြီး အနောက်ခြမ်း, ပဲခူးတိုင်းဒေသကြီး (Bago), Myanmar","(17.654413, 95.786285, 0.0)",17.654413,95.786285,0.0
225,MMR008008,Letpadan,လက်ပံတန်း,မြို့နယ်,Township,"လက်ပံတန်း, သာယာဝတီခရိုင, ပဲခူးတိုင်းဒေသကြီး အနောက်ခြမ်း, ပဲခူးတိုင်းဒေသကြီး (Bago), 12345, Myanmar","(17.783333, 95.75, 0.0)",17.783333,95.75,0.0
226,MMR008009,Minhla,မင်းလှ,မြို့နယ်,Township,"မင်းလှ, ကလေးခရိုင်, စစ်ကိုင်းတိုင်း (Sagaing), Myanmar","(23.37225, 94.041817, 0.0)",23.37225,94.041817,0.0
227,MMR008010,Okpho,အုတ်ဖို,မြို့နယ်,Township,"အုတ်ဖို, သာယာဝတီခရိုင, ပဲခူးတိုင်းဒေသကြီး အနောက်ခြမ်း, ပဲခူးတိုင်းဒေသကြီး (Bago), Myanmar","(18.130222, 95.671768, 0.0)",18.130222,95.671768,0.0
228,MMR008011,Zigon,ဇီးကုန်း,မြို့နယ်,Township,"ဇီးကုန်း, Thaton District, Mon, Myanmar","(17.5664929, 97.2536863, 0.0)",17.5664929,97.2536863,0.0
229,MMR008012,Nattalin,နတ်တလင်း,မြို့နယ်,Township,"နတ်တလင်း, စစ်တွေခရိုင, ရခိုင်ပြည်နယ် (Rakhine), Myanmar","(20.565109, 92.918747, 0.0)",20.565109,92.918747,0.0
230,MMR008013,Monyo,မိုးညို,မြို့နယ်,Township,"မိုးညို, သာယာဝတီခရိုင, ပဲခူးတိုင်းဒေသကြီး အနောက်ခြမ်း, ပဲခူးတိုင်းဒေသကြီး (Bago), 53754, Myanmar","(18.027185, 95.511848, 0.0)",18.027185,95.511848,0.0
231,MMR008014,Gyobingauk,ကြို့ပင်ကောက်,မြို့နယ်,Township,"ကြို့ပင်ကောက်, သာယာဝတီခရိုင, ပဲခူးတိုင်းဒေသကြီး အနောက်ခြမ်း, ပဲခူးတိုင်းဒေသကြီး (Bago), Myanmar","(18.230615, 95.6491121, 0.0)",18.230615,95.6491121,0.0
232,MMR009001,Magway,မကွေး,မြို့နယ်,Township,"မကွေး, မကွေးခရိုင်, မကွေးတိုင်းဒေသကြီး, Myanmar","(20.1491458, 94.9213518, 0.0)",20.1491458,94.9213518,0.0
233,MMR009002,Yenangyaung,ရေနံချောင်း,မြို့နယ်,Township,"ရေနံချောင်း, မကွေးခရိုင်, မကွေးတိုင်းဒေသကြီး, Myanmar","(20.4608216, 94.872961, 0.0)",20.4608216,94.872961,0.0
234,MMR009003,Chauk,ချောက်,မြို့နယ်,Township,"ချောက်, မကွေးခရိုင်, မကွေးတိုင်းဒေသကြီး, 24398, Myanmar","(20.8947519, 94.8198211, 0.0)",20.8947519,94.8198211,0.0
235,MMR009004,Taungdwingyi,တောင်တွင်းကြီး,မြို့နယ်,Township,"တောင်တွင်းကြီး, မကွေးခရိုင်, မကွေးတိုင်းဒေသကြီး, Myanmar","(20.001873, 95.546135, 0.0)",20.001873,95.546135,0.0
236,MMR009005,Myothit,မြို့သစ်,မြို့နယ်,Township,"မြို့သစ်, ဗန်းမော်ခရိုင်, ကချင်ပြည်နယ် (Kachin), Myanmar","(24.4109379, 97.4068024, 0.0)",24.4109379,97.4068024,0.0
237,MMR009006,Natmauk,နတ်မောက်,မြို့နယ်,Township,"နတ်မောက်, မကွေးခရိုင်, မကွေးတိုင်းဒေသကြီး, 04121, Myanmar","(20.353386, 95.399658, 0.0)",20.353386,95.399658,0.0
238,MMR009007,Minbu,မင်းဘူး,မြို့နယ်,Township,"မင်းဘူး, မင်းဘူးခရိုင်, မကွေးတိုင်းဒေသကြီး, Myanmar","(20.1837903, 94.8767199, 0.0)",20.1837903,94.8767199,0.0
239,MMR009008,Pwintbyu,ပွင့်ဖြူ,မြို့နယ်,Township,"ပွင့်ဖြူ, မင်းဘူးခရိုင်, မကွေးတိုင်းဒေသကြီး, 04032, Myanmar","(20.363335, 94.669334, 0.0)",20.363335,94.669334,0.0
240,MMR009009,Ngape,ငဖဲ,မြို့နယ်,Township,"ငဖဲမြို့, မင်းဘူးခရိုင်, မကွေးတိုင်းဒေသကြီး, 04061, Myanmar","(20.0756891, 94.4681737, 0.0)",20.0756891,94.4681737,0.0
241,MMR009010,Salin,စလင်း,မြို့နယ်,Township,"စလင်း, မင်းဘူးခရိုင်, မကွေးတိုင်းဒေသကြီး, Myanmar","(20.5772, 94.659363, 0.0)",20.5772,94.659363,0.0
242,MMR009011,Sidoktaya,စေတုတ္ထရာ,မြို့နယ်,Township,,,,,
243,MMR009012,Thayet,သရက်,မြို့နယ်,Township,"သရက်, သရက်ခရိုင်, မကွေးတိုင်းဒေသကြီး, Myanmar","(19.322687, 95.1794744, 0.0)",19.322687,95.1794744,0.0
244,MMR009013,Minhla,မင်းလှ,မြို့နယ်,Township,"မင်းလှ, ကလေးခရိုင်, စစ်ကိုင်းတိုင်း (Sagaing), Myanmar","(23.37225, 94.041817, 0.0)",23.37225,94.041817,0.0
245,MMR009014,Mindon,မင်းတုန်း,မြို့နယ်,Township,"မင်းတုန်း, သရက်ခရိုင်, မကွေးတိုင်းဒေသကြီး, Myanmar","(19.346293, 94.731941, 0.0)",19.346293,94.731941,0.0
246,MMR009015,Kamma,ကံမ,မြို့နယ်,Township,"ကံမ, သရက်ခရိုင်, မကွေးတိုင်းဒေသကြီး, Myanmar","(19.028971, 95.09594, 0.0)",19.028971,95.09594,0.0
247,MMR009016,Aunglan,အောင်လံ,မြို့နယ်,Township,"အောင်လံ, သရက်ခရိုင်, မကွေးတိုင်းဒေသကြီး, 04151, Myanmar","(19.366667, 95.216667, 0.0)",19.366667,95.216667,0.0
248,MMR009017,Sinbaungwe,ဆင်ပေါင်ဝဲ,မြို့နယ်,Township,"ဆင်ပေါင်ဝဲ, သရက်ခရိုင်, မကွေးတိုင်းဒေသကြီး, Myanmar","(19.727261, 95.166204, 0.0)",19.727261,95.166204,0.0
249,MMR009018,Pakokku,ပခုက္ကူ,မြို့နယ်,Township,"ပခုက္ကူ, ပခုက္ကူခရိုင်, မကွေးတိုင်းဒေသကြီး, 04201, Myanmar","(21.3343349, 95.0944271, 0.0)",21.3343349,95.0944271,0.0
250,MMR009019,Yesagyo,ရေစကြို,မြို့နယ်,Township,"ရေစကြို, ပခုက္ကူခရိုင်, မကွေးတိုင်းဒေသကြီး, Myanmar","(21.632949, 95.2487324, 0.0)",21.632949,95.2487324,0.0
251,MMR009020,Myaing,မြိုင်,မြို့နယ်,Township,"မြိုင်, ပခုက္ကူခရိုင်, မကွေးတိုင်းဒေသကြီး, Myanmar","(21.61256, 94.854317, 0.0)",21.61256,94.854317,0.0
252,MMR009021,Pauk,ပေါက်,မြို့နယ်,Township,"ပေါက်, ပခုက္ကူခရိုင်, မကွေးတိုင်းဒေသကြီး, Myanmar","(21.45215, 94.473737, 0.0)",21.45215,94.473737,0.0
253,MMR009022,Seikphyu,ဆိပ်ဖြူ,မြို့နယ်,Township,"ဆိပ်ဖြူ, ပခုက္ကူခရိုင်, မကွေးတိုင်းဒေသကြီး, Myanmar","(20.906509, 94.792427, 0.0)",20.906509,94.792427,0.0
254,MMR009023,Gangaw,ဂန့်ဂေါ,မြို့နယ်,Township,"ဂန့်ဂေါ, ဂန့်ဂေါခရိုင်, မကွေးတိုင်းဒေသကြီး, Myanmar","(22.1769278, 94.1328898, 0.0)",22.1769278,94.1328898,0.0
255,MMR009024,Tilin,ထီးလင်း,မြို့နယ်,Township,"ထီးလင်း, ဂန့်ဂေါခရိုင်, မကွေးတိုင်းဒေသကြီး, Myanmar","(21.6959068, 94.0941855, 0.0)",21.6959068,94.0941855,0.0
256,MMR009025,Saw,ဆော,မြို့နယ်,Township,"ဆော, ဂန့်ဂေါခရိုင်, မကွေးတိုင်းဒေသကြီး, Myanmar","(21.1523995, 94.1558364, 0.0)",21.1523995,94.1558364,0.0
257,MMR010001,Aungmyaythazan,အောင်မြေသာစံ,မြို့နယ်,Township,"အောင်မြေသာစံ, မန္တလေးခရိုင်, မန္တလေးတိုင်း, Myanmar","(22.004523900000002, 96.09846939089206, 0.0)",22.004523900000002,96.09846939089206,0.0
258,MMR010002,Chanayethazan,ချမ်းအေးသာစံ,မြို့နယ်,Township,"ချမ်းအေးသာစံ, မန္တလေးခရိုင်, မန္တလေးတိုင်း, Myanmar","(21.9759744, 96.09352790820085, 0.0)",21.9759744,96.09352790820085,0.0
259,MMR010003,Mahaaungmyay,မဟာအောင်မြေ,မြို့နယ်,Township,"မဟာအောင်မြေ, မန္တလေးခရိုင်, မန္တလေးတိုင်း, Myanmar","(21.958904, 96.091162, 0.0)",21.958904,96.091162,0.0
260,MMR010004,Chanmyathazi,ချမ်းမြသာစည်,မြို့နယ်,Township,"ချမ်းမြသာစည်, မန္တလေးခရိုင်, မန္တလေးတိုင်း, Myanmar","(21.939404, 96.095838, 0.0)",21.939404,96.095838,0.0
261,MMR010005,Pyigyitagon,ပြည်ကြီးတံခွန်,မြို့နယ်,Township,"ပြည်ကြီးတံခွန်, မန္တလေးခရိုင်, မန္တလေးတိုင်း, Myanmar","(21.901964, 96.104181, 0.0)",21.901964,96.104181,0.0
262,MMR010006,Amarapura,အမရပူရ,မြို့နယ်,Township,"အမရပူရ, မန္တလေးခရိုင်, မန္တလေးတိုင်း, 05062, Myanmar","(21.903139, 96.049483, 0.0)",21.903139,96.049483,0.0
263,MMR010007,Patheingyi,ပုသိမ်ကြီး,မြို့နယ်,Township,"ပုသိမ်ကြီး, မန္တလေးခရိုင်, မန္တလေးတိုင်း, Myanmar","(22.012563, 96.154303, 0.0)",22.012563,96.154303,0.0
264,MMR010008,Pyinoolwin,ပြင်ဦးလွင်,မြို့နယ်,Township,"ပြင်ဦးလွင်, ပြင်ဦးလွင်ခရိုင်, မန္တလေးတိုင်း, Myanmar","(22.0333331, 96.466667, 0.0)",22.0333331,96.466667,0.0
265,MMR010009,Madaya,မတ္တရာ,မြို့နယ်,Township,"မတ္တရာ, ပြင်ဦးလွင်ခရိုင်, မန္တလေးတိုင်း, 05121, Myanmar","(22.21036, 96.106392, 0.0)",22.21036,96.106392,0.0
266,MMR010010,Singu,စဉ့်ကူး,မြို့နယ်,Township,"စဉ့်ကူး, ပြင်ဦးလွင်ခရိုင်, မန္တလေးတိုင်း, Myanmar","(22.549781, 95.998993, 0.0)",22.549781,95.998993,0.0
267,MMR010011,Mogoke,မိုးကုတ်,မြို့နယ်,Township,"မိုးကုတ်မြို့နယ်, ပြင်ဦးလွင်ခရိုင်, မန္တလေးတိုင်း, 05091, Myanmar","(22.90763075, 96.43951377692126, 0.0)",22.90763075,96.43951377692126,0.0
268,MMR010012,Thabeikkyin,သပိတ်ကျင်း,မြို့နယ်,Township,"သပိတ်ကျင်း, ပြင်ဦးလွင်ခရိုင်, မန္တလေးတိုင်း, Myanmar","(23.19157735, 96.0668223281875, 0.0)",23.19157735,96.0668223281875,0.0
269,MMR010013,Kyaukse,ကျောက်ဆည်,မြို့နယ်,Township,"ကျောက်ဆည်, ကျောက်ဆည်ခရိုင်, မန္တလေးတိုင်း, 05151, Myanmar","(21.72522725, 96.60359319240224, 0.0)",21.72522725,96.60359319240224,0.0
270,MMR010014,Sintgaing,စဉ့်ကိုင်,မြို့နယ်,Township,"စဉ့်ကိုင်, ကျောက်ဆည်ခရိုင်, မန္တလေးတိုင်း, 05141, Myanmar","(21.7322063, 96.1082034, 0.0)",21.7322063,96.1082034,0.0
271,MMR010015,Myittha,မြစ်သား,မြို့နယ်,Township,"Myit Thar မြစ်သား, ကျောက်ဆည်ခရိုင်, မန္တလေးတိုင်း, Myanmar","(21.4251686, 96.13010567302811, 0.0)",21.4251686,96.13010567302811,0.0
272,MMR010016,Tada-U,တံတားဦး,မြို့နယ်,Township,"တံတားဦး, ကျောက်ဆည်ခရိုင်, မန္တလေးတိုင်း, 066, Myanmar","(21.8162339, 95.9700599, 0.0)",21.8162339,95.9700599,0.0
273,MMR010017,Myingyan,မြင်းခြံ,မြို့နယ်,Township,"မြင်းခြံ, မြင်းခြံခရိုင်, မန္တလေးတိုင်း, 100401, Myanmar","(21.4587531, 95.3924129, 0.0)",21.4587531,95.3924129,0.0
274,MMR010018,Taungtha,တောင်သာ,မြို့နယ်,Township,"တောင်သာ, မြင်းခြံခရိုင်, မန္တလေးတိုင်း, Myanmar","(21.27603, 95.445412, 0.0)",21.27603,95.445412,0.0
275,MMR010019,Natogyi,နွားထိုးကြီး,မြို့နယ်,Township,"နွားထိုးကြီး, မြင်းခြံခရိုင်, မန္တလေးတိုင်း, 02, Myanmar","(21.459544899999997, 95.73064381971119, 0.0)",21.459544899999997,95.73064381971119,0.0
276,MMR010020,Kyaukpadaung,ကျောက်ပန်းတောင်း,မြို့နယ်,Township,"ကျောက်ပန်းတောင်း, ညောင်ဦးခရိုင်, မန္တလေးတိုင်း, 05241, Myanmar","(20.8410724, 95.1279364, 0.0)",20.8410724,95.1279364,0.0
277,MMR010021,Ngazun,ငါန်းဇွန်,မြို့နယ်,Township,"ငါန်းဇွန်, မြင်းခြံခရိုင်, မန္တလေးတိုင်း, Myanmar","(21.898103, 95.6877173, 0.0)",21.898103,95.6877173,0.0
278,MMR010022,Nyaung-U,ညောင်ဦး,မြို့နယ်,Township,"ညောင်ဦး, ညောင်ဦးခရိုင်, မန္တလေးတိုင်း, Myanmar","(21.1999599, 94.9071683, 0.0)",21.1999599,94.9071683,0.0
279,MMR010023,Yamethin,ရမည်းသင်း,မြို့နယ်,Township,"ရမည်းသင်း, ရမည်းသင်းခရိုင်, မန္တလေးတိုင်း, +959, Myanmar","(20.4318725, 96.1399956, 0.0)",20.4318725,96.1399956,0.0
280,MMR010024,Pyawbwe,ပျော်ဘွယ်,မြို့နယ်,Township,"ပျော်ဘွယ်, ရမည်းသင်းခရိုင်, မန္တလေးတိုင်း, Myanmar","(20.5910458, 96.0505821, 0.0)",20.5910458,96.0505821,0.0
281,MMR010028,Meiktila,မိတ္ထီလာ,မြို့နယ်,Township,"မိတ္ထီလာ, မိတ္ထီလာခရိုင်, မန္တလေးတိုင်း, Myanmar","(20.82828715, 95.74961240412887, 0.0)",20.82828715,95.74961240412887,0.0
282,MMR010029,Mahlaing,မလှိုင်,မြို့နယ်,Township,"မလှိုင်, မိတ္ထီလာခရိုင်, မန္တလေးတိုင်း, Myanmar","(21.098669, 95.64698, 0.0)",21.098669,95.64698,0.0
283,MMR010030,Thazi,သာစည်,မြို့နယ်,Township,"သာစည်, မိတ္ထီလာခရိုင်, မန္တလေးတိုင်း, Myanmar","(20.850189, 96.05838, 0.0)",20.850189,96.05838,0.0
284,MMR010031,Wundwin,ဝမ်းတွင်း,မြို့နယ်,Township,"ဝမ်းတွင်း, မိတ္ထီလာခရိုင်, မန္တလေးတိုင်း, Myanmar","(21.09691, 96.030014, 0.0)",21.09691,96.030014,0.0
285,MMR011001,Mawlamyine,မော်လမြိုင်,မြို့နယ်,Township,"မော်လမြိုင်, Mawlamyine District, Mon, Myanmar","(16.4908026, 97.6284825, 0.0)",16.4908026,97.6284825,0.0
286,MMR011002,Kyaikmaraw,ကျိုက်မရော,မြို့နယ်,Township,"ကျိုက်မရော, Mawlamyine District, Mon, Myanmar","(16.369119, 97.7250556, 0.0)",16.369119,97.7250556,0.0
287,MMR011003,Chaungzon,ချောင်းဆုံ,မြို့နယ်,Township,"ချောင်းဆုံ, Mawlamyine District, Mon, Myanmar","(16.31060335, 97.46106410004285, 0.0)",16.31060335,97.46106410004285,0.0
288,MMR011004,Thanbyuzayat,သံဖြူဇရပ်,မြို့နယ်,Township,"သံဖြူဇရပ်, Mawlamyine District, Mon, 12091, Myanmar","(15.9690787, 97.7278081, 0.0)",15.9690787,97.7278081,0.0
289,MMR011005,Mudon,မုဒုံ,မြို့နယ်,Township,"မုဒုံ, Mawlamyine District, Mon, 12085, Myanmar","(16.2558972, 97.7292529, 0.0)",16.2558972,97.7292529,0.0
290,MMR011006,Ye,ရေး,မြို့နယ်,Township,"ရေး, Mawlamyine District, Mon, Myanmar","(15.2464126, 97.8520389, 0.0)",15.2464126,97.8520389,0.0
291,MMR011007,Thaton,သထုံ,မြို့နယ်,Township,"သထုံ, Thaton District, Mon, 100, Myanmar","(16.9136941, 97.3689718, 0.0)",16.9136941,97.3689718,0.0
292,MMR011008,Paung,ပေါင်,မြို့နယ်,Township,"ပေါင်, Thaton District, Mon, Myanmar","(16.6621036, 97.439756, 0.0)",16.6621036,97.439756,0.0
293,MMR011009,Kyaikto,ကျိုက်ထို,မြို့နယ်,Township,"ကျိုက်ထို, Thaton District, Mon, Myanmar","(17.3091636, 97.0096713, 0.0)",17.3091636,97.0096713,0.0
294,MMR011010,Bilin,ဘီးလင်း,မြို့နယ်,Township,"ဘီးလင်း, Thaton District, Mon, Myanmar","(17.2142678, 97.2318618, 0.0)",17.2142678,97.2318618,0.0
295,MMR012001,Sittwe,စစ်တွေ,မြို့နယ်,Township,"စစ်တွေ, စစ်တွေခရိုင, ရခိုင်ပြည်နယ် (Rakhine), 043, Myanmar","(20.15, 92.9, 0.0)",20.15,92.9,0.0
296,MMR012002,Ponnagyun,ပုဏ္ဏားကျွန်း,မြို့နယ်,Township,"ပုဏ္ဏားကျွန်း, စစ်တွေခရိုင, ရခိုင်ပြည်နယ် (Rakhine), Myanmar","(20.331985, 93.004295, 0.0)",20.331985,93.004295,0.0
297,MMR012003,Mrauk-U,မြောက်ဦး,မြို့နယ်,Township,"မြောက်ဦး, မြောက်ဦးခရိုင, ရခိုင်ပြည်နယ် (Rakhine), Myanmar","(20.61451045, 93.17012433699182, 0.0)",20.61451045,93.17012433699182,0.0
298,MMR012004,Kyauktaw,ကျောက်တော်,မြို့နယ်,Township,"ကျောက်တော်, မြောက်ဦးခရိုင, ရခိုင်ပြည်နယ် (Rakhine), Myanmar","(20.843957, 92.97282, 0.0)",20.843957,92.97282,0.0
299,MMR012005,Minbya,မင်းပြား,မြို့နယ်,Township,"မင်းပြား, မြောက်ဦးခရိုင, ရခိုင်ပြည်နယ် (Rakhine), Myanmar","(20.364523, 93.27269, 0.0)",20.364523,93.27269,0.0
300,MMR012006,Myebon,မြေပုံ,မြို့နယ်,Township,"မြေပုံ, မြောက်ဦးခရိုင, ရခိုင်ပြည်နယ် (Rakhine), 07011, Myanmar","(20.046762, 93.373764, 0.0)",20.046762,93.373764,0.0
301,MMR012007,Pauktaw,ပေါက်တော,မြို့နယ်,Township,"ပေါက်တော, စစ်တွေခရိုင, ရခိုင်ပြည်နယ် (Rakhine), Myanmar","(20.1825232, 93.0684364, 0.0)",20.1825232,93.0684364,0.0
302,MMR012008,Rathedaung,ရသေ့တောင်,မြို့နယ်,Township,"ရသေ့တောင်, စစ်တွေခရိုင, ရခိုင်ပြည်နယ် (Rakhine), Myanmar","(20.488342, 92.754158, 0.0)",20.488342,92.754158,0.0
303,MMR012009,Maungdaw,မောင်တော,မြို့နယ်,Township,"မောင်တော, မောင်တောခရိုင, ရခိုင်ပြည်နယ် (Rakhine), Myanmar","(20.8269243, 92.3661178, 0.0)",20.8269243,92.3661178,0.0
304,MMR012010,Buthidaung,ဘူးသီးတောင်,မြို့နယ်,Township,"ဘူးသီးတောင်, မောင်တောခရိုင, ရခိုင်ပြည်နယ် (Rakhine), Myanmar","(20.8747257, 92.5280099, 0.0)",20.8747257,92.5280099,0.0
305,MMR012011,Kyaukpyu,ကျောက်ဖြူ,မြို့နယ်,Township,"ကျောက်ဖြူ, ကျောက်ဖြူခရိုင်, ရခိုင်ပြည်နယ် (Rakhine), Myanmar","(19.4266675, 93.5479844, 0.0)",19.4266675,93.5479844,0.0
306,MMR012012,Munaung,မာန်အောင်,မြို့နယ်,Township,"မာန်အောင်, ကျောက်ဖြူခရိုင်, ရခိုင်ပြည်နယ် (Rakhine), Myanmar","(18.793946249999998, 93.63100831206881, 0.0)",18.793946249999998,93.63100831206881,0.0
307,MMR012013,Ramree,ရမ်းဗြဲ,မြို့နယ်,Township,"ရမ်းဗြဲ, ကျောက်ဖြူခရိုင်, ရခိုင်ပြည်နယ် (Rakhine), Myanmar","(19.091339, 93.8632293, 0.0)",19.091339,93.8632293,0.0
308,MMR012014,Ann,အမ်း,မြို့နယ်,Township,"အမ်း, ကျောက်ဖြူခရိုင်, ရခိုင်ပြည်နယ် (Rakhine), 07151, Myanmar","(19.7808466, 94.0312875, 0.0)",19.7808466,94.0312875,0.0
309,MMR012015,Thandwe,သံတွဲ,မြို့နယ်,Township,"သံတွဲ, သံတွဲခရိုင, ရခိုင်ပြည်နယ် (Rakhine), 07171, Myanmar","(18.4664443, 94.3668616, 0.0)",18.4664443,94.3668616,0.0
310,MMR012016,Toungup,တောင်ကုတ်,မြို့နယ်,Township,"တောင်ကုတ်, သံတွဲခရိုင, ရခိုင်ပြည်နယ် (Rakhine), Myanmar","(18.8548345, 94.2387634, 0.0)",18.8548345,94.2387634,0.0
311,MMR012017,Gwa,ဂွ,မြို့နယ်,Township,"ဂွ, သံတွဲခရိုင, ရခိုင်ပြည်နယ် (Rakhine), Myanmar","(17.5958274, 94.5801887, 0.0)",17.5958274,94.5801887,0.0
312,MMR013001,Insein,အင်းစိန်,မြို့နယ်,Township,"အင်းစိန်, Northern District, ရန်ကုန်တိုင်းဒေသကြီး, Myanmar","(16.8879884, 96.1066695, 0.0)",16.8879884,96.1066695,0.0
313,MMR013002,Mingaladon,မင်္ဂလာဒုံ,မြို့နယ်,Township,"မင်္ဂလာဒုံ, ပန်းချယ်ရီလမ်း, Mingaladon, Northern District, ရန်ကုန်တိုင်းဒေသကြီး, 11031, Myanmar","(16.9308484, 96.1450096, 0.0)",16.9308484,96.1450096,0.0
314,MMR013003,Hmawbi,မှော်ဘီ,မြို့နယ်,Township,"မှော်ဘီ, ရန်ကုန်တိုင်းဒေသကြီး, Myanmar","(17.128675899999998, 96.0535465205914, 0.0)",17.128675899999998,96.0535465205914,0.0
315,MMR013004,Hlegu,လှည်းကူး,မြို့နယ်,Township,"လှည်းကူး, ရန်ကုန်တိုင်းဒေသကြီး, Myanmar","(17.0988371, 96.2233619, 0.0)",17.0988371,96.2233619,0.0
316,MMR013005,Taikkyi,တိုက်ကြီး,မြို့နယ်,Township,"တိုက်ကြီး, ရန်ကုန်တိုင်းဒေသကြီး, 11101, Myanmar","(17.3145946, 95.9588329, 0.0)",17.3145946,95.9588329,0.0
317,MMR013006,Htantabin,ထန်းတပင်,မြို့နယ်,Township,"ထန်းတပင်, ရန်ကုန်တိုင်းဒေသကြီး, 1111, Myanmar","(17.05755495, 95.88844688904413, 0.0)",17.05755495,95.88844688904413,0.0
318,MMR013007,Shwepyithar,ရွှေပြည်သာ,မြို့နယ်,Township,"ရွှေပြည်သာ, Northern District, ရန်ကုန်တိုင်းဒေသကြီး, 11411, Myanmar","(16.9532724, 96.0795114, 0.0)",16.9532724,96.0795114,0.0
319,MMR013008,Hlaingtharya,လှိုင်သာယာ,မြို့နယ်,Township,"လှိုင်သာယာ, Northern District, ရန်ကုန်တိုင်းဒေသကြီး, Myanmar","(16.8763811, 96.0633373, 0.0)",16.8763811,96.0633373,0.0
320,MMR013009,Thingangyun,သင်္ဃန်းကျွန်း,မြို့နယ်,Township,"သင်္ဃန်းကျွန်း, Eastern District, ရန်ကုန်တိုင်းဒေသကြီး, Myanmar","(16.8319649, 96.1973169, 0.0)",16.8319649,96.1973169,0.0
321,MMR013010,Yankin,ရန်ကင်း,မြို့နယ်,Township,"ရန်ကင်း, မြောက်ဦးခရိုင, ရခိုင်ပြည်နယ် (Rakhine), Myanmar","(20.4963, 93.198669, 0.0)",20.4963,93.198669,0.0
322,MMR013011,South Okkalapa,တောင်ဥက္ကလာပ,မြို့နယ်,Township,"တောင်ဥက္ကလာပ, Eastern District, ရန်ကုန်တိုင်းဒေသကြီး, Myanmar","(16.8470123, 96.1801647, 0.0)",16.8470123,96.1801647,0.0
323,MMR013012,North Okkalapa,မြောက်ဥက္ကလာပ,မြို့နယ်,Township,"မြောက်ဥက္ကလာပ, Eastern District, ရန်ကုန်တိုင်းဒေသကြီး, Myanmar","(16.9170016, 96.1669251, 0.0)",16.9170016,96.1669251,0.0
324,MMR013013,Thaketa,သာကေတ,မြို့နယ်,Township,"သာကေတ, Southern District, ရန်ကုန်တိုင်းဒေသကြီး, Myanmar","(16.7980403, 96.2072005, 0.0)",16.7980403,96.2072005,0.0
325,MMR013014,Dawbon,ဒေါပုံ,မြို့နယ်,Township,"ဒေါပုံ, Southern District, ရန်ကုန်တိုင်းဒေသကြီး, Myanmar","(16.7826249, 96.1877755, 0.0)",16.7826249,96.1877755,0.0
326,MMR013015,Tamwe,တာမွေ,မြို့နယ်,Township,"တာမွေ, Southern District, ရန်ကုန်တိုင်းဒေသကြီး, Myanmar","(16.8062992, 96.1769272, 0.0)",16.8062992,96.1769272,0.0
327,MMR013016,Pazundaung,ပုဇွန်တောင်,မြို့နယ်,Township,"ပုဇွန်တောင်, Eastern District, ရန်ကုန်တိုင်းဒေသကြီး, 1118, Myanmar","(16.77797085, 96.17550522618376, 0.0)",16.77797085,96.17550522618376,0.0
328,MMR013017,Botahtaung,ဗိုလ်တထောင်,မြို့နယ်,Township,"ဗိုလ်တထောင်, Eastern District, ရန်ကုန်တိုင်းဒေသကြီး, Myanmar","(16.7714469, 96.178371, 0.0)",16.7714469,96.178371,0.0
329,MMR013018,Dagon Myothit (South),ဒဂုံမြို့သစ်(တောင်ပိုင်း),မြို့နယ်,Township,,,,,
330,MMR013019,Dagon Myothit (North),ဒဂုံမြို့သစ်(မြောက်ပိုင်း),မြို့နယ်,Township,,,,,
331,MMR013020,Dagon Myothit (East),ဒဂုံမြို့သစ်(အရှေ့ပိုင်း),မြို့နယ်,Township,,,,,
332,MMR013021,Dagon Myothit (Seikkan),ဒဂုံမြို့သစ်(ဆိပ်ကမ်း),မြို့နယ်,Township,,,,,
333,MMR013022,Mingalartaungnyunt,မင်္ဂလာတောင်ညွန့်,မြို့နယ်,Township,"မင်္ဂလာတောင်ညွန့်, Southern District, ရန်ကုန်တိုင်းဒေသကြီး, Myanmar","(16.7888526, 96.1728494, 0.0)",16.7888526,96.1728494,0.0
334,MMR013023,Thanlyin,သန်လျင်,မြို့နယ်,Township,"သန်လျင်, ရန်ကုန်တိုင်းဒေသကြီး, 11291, Myanmar","(16.822182400000003, 96.34755033389905, 0.0)",16.822182400000003,96.34755033389905,0.0
335,MMR013024,Kyauktan,ကျောက်တန်း,မြို့နယ်,Township,"ကျောက်တန်း, ရန်ကုန်တိုင်းဒေသကြီး, Myanmar","(16.6349752, 96.3254567, 0.0)",16.6349752,96.3254567,0.0
336,MMR013025,Thongwa,သုံးခွ,မြို့နယ်,Township,"သုံးခွ, ရန်ကုန်တိုင်းဒေသကြီး, Myanmar","(16.7608437, 96.5237188, 0.0)",16.7608437,96.5237188,0.0
337,MMR013026,Kayan,ခရမ်း,မြို့နယ်,Township,"ခရမ်း, ရန်ကုန်တိုင်းဒေသကြီး, Myanmar","(16.905556, 96.563056, 0.0)",16.905556,96.563056,0.0
338,MMR013027,Twantay,တွံတေး,မြို့နယ်,Township,"တွံတေး, ရန်ကုန်တိုင်းဒေသကြီး, 11331, Myanmar","(16.737795650000002, 95.98545886069823, 0.0)",16.737795650000002,95.98545886069823,0.0
339,MMR013028,Kawhmu,ကော့မှူး,မြို့နယ်,Township,"ကော့မှူး, ရန်ကုန်တိုင်းဒေသကြီး, Myanmar","(16.540769400000002, 96.10926500870181, 0.0)",16.540769400000002,96.10926500870181,0.0
340,MMR013029,Kungyangon,ကွမ်းခြံကုန်း,မြို့နယ်,Township,"ကွမ်းခြံကုန်း, ရန်ကုန်တိုင်းဒေသကြီး, 951, Myanmar","(16.4391422, 96.0103711, 0.0)",16.4391422,96.0103711,0.0
341,MMR013030,Dala,ဒလ,မြို့နယ်,Township,"Dala, Lunda Sul, Angola","(-11.033333, 20.2, 0.0)",-11.033333,20.2,0.0
342,MMR013031,Seikgyikanaungto,ဆိပ်ကြီး/ခနောင်တို,မြို့နယ်,Township,,,,,
343,MMR013032,Cocokyun,ကိုကိုးကျွန်း,မြို့နယ်,Township,"ကိုကိုးကျွန်း, ရန်ကုန်တိုင်းဒေသကြီး, Myanmar","(14.87043835, 93.6220160465848, 0.0)",14.87043835,93.6220160465848,0.0
344,MMR013033,Kyauktada,ကျောက်တံတား,မြို့နယ်,Township,"ကျောက်တံတား, Western District, ရန်ကုန်တိုင်းဒေသကြီး, Myanmar","(16.774106, 96.1619839, 0.0)",16.774106,96.1619839,0.0
345,MMR013034,Pabedan,ပန်းဘဲတန်း,မြို့နယ်,Township,"ပန်းဘဲတန်း, Western District, ရန်ကုန်တိုင်းဒေသကြီး, Myanmar","(16.7759583, 96.1561493, 0.0)",16.7759583,96.1561493,0.0
346,MMR013035,Lanmadaw,လမ်းမတော်,မြို့နယ်,Township,"လမ်းမတော်, Western District, ရန်ကုန်တိုင်းဒေသကြီး, Myanmar","(16.7789664, 96.1417274, 0.0)",16.7789664,96.1417274,0.0
347,MMR013036,Latha,လသာ,မြို့နယ်,Township,"လသာ, Western District, ရန်ကုန်တိုင်းဒေသကြီး, Myanmar","(16.7763082, 96.1504591, 0.0)",16.7763082,96.1504591,0.0
348,MMR013037,Ahlone,အလုံ,မြို့နယ်,Township,"အလုံ, Western District, ရန်ကုန်တိုင်းဒေသကြီး, Myanmar","(16.786798, 96.1287706, 0.0)",16.786798,96.1287706,0.0
349,MMR013038,Kyeemyindaing,ကြည့်မြင်တိုင်,မြို့နယ်,Township,"ကြည့်မြင်တိုင်, Western District, ရန်ကုန်တိုင်းဒေသကြီး, Myanmar","(16.8129125, 96.121305, 0.0)",16.8129125,96.121305,0.0
350,MMR013039,Sanchaung,စမ်းချောင်း,မြို့နယ်,Township,"စမ်းချောင်း, Western District, ရန်ကုန်တိုင်းဒေသကြီး, Myanmar","(16.8061661, 96.1321384, 0.0)",16.8061661,96.1321384,0.0
351,MMR013040,Hlaing,လှိုင်,မြို့နယ်,Township,"လှိုင်, Northern District, ရန်ကုန်တိုင်းဒေသကြီး, Myanmar","(16.8430511, 96.1234366, 0.0)",16.8430511,96.1234366,0.0
352,MMR013041,Kamaryut,ကမာရွတ်,မြို့နယ်,Township,"ကမာရွတ်, Northern District, ရန်ကုန်တိုင်းဒေသကြီး, Myanmar","(16.8237948, 96.1320589, 0.0)",16.8237948,96.1320589,0.0
353,MMR013042,Mayangone,မရမ်းကုန်း,မြို့နယ်,Township,"မရမ်းကုန်း, Northern District, ရန်ကုန်တိုင်းဒေသကြီး, Myanmar","(16.8660884, 96.1171103, 0.0)",16.8660884,96.1171103,0.0
354,MMR013043,Dagon,ဒဂုံ,မြို့နယ်,Township,"ဒဂုံ, Western District, ရန်ကုန်တိုင်းဒေသကြီး, Myanmar","(16.7923726, 96.1443386, 0.0)",16.7923726,96.1443386,0.0
355,MMR013044,Bahan,ဗဟန်း,မြို့နယ်,Township,"ဗဟန်း, Western District, ရန်ကုန်တိုင်းဒေသကြီး, Myanmar","(16.8061396, 96.1512582, 0.0)",16.8061396,96.1512582,0.0
356,MMR013045,Seikkan,ဆိပ်ကမ်း,မြို့နယ်,Township,"ဆိပ်ကမ်း, Western District, ရန်ကုန်တိုင်းဒေသကြီး, Myanmar","(16.7711884, 96.1501676, 0.0)",16.7711884,96.1501676,0.0
357,MMR013046,Hlaingtharya (East),လှိုင်သာယာ(အရှေ့ပိုင်း),မြို့နယ်,Township,,,,,
358,MMR013047,Hlaingtharya (West),လှိုင်သာယာ(အနောက်ပိုင်း),မြို့နယ်,Township,"အနောက်ပိုင်း တက္ကသိုလ်, West University, လှိုင်သာယာ, ထန်းတပင်, Northern District, ရန်ကုန်တိုင်းဒေသကြီး, 11401, Myanmar","(16.94719, 96.0158699, 0.0)",16.94719,96.0158699,0.0
359,MMR014001,Taunggyi,တောင်ကြီး,မြို့နယ်,Township,"တောင်ကြီး, မြောက်ဦးခရိုင, ရခိုင်ပြည်နယ် (Rakhine), Myanmar","(20.06513, 93.539047, 0.0)",20.06513,93.539047,0.0
360,MMR014002,Nyaungshwe,ညောင်ရွှေ,မြို့နယ်,Township,"ညောင်ရွှေ, တောင်ကြီးခရိုင, ရှမ်းပြည်နယ်တောင်ပိုင်း, ရှမ်းပြည်နယ် Shan State, 06081, Myanmar","(20.3593344, 96.90721525418596, 0.0)",20.3593344,96.90721525418596,0.0
361,MMR014003,Hopong,ဟိုပုံး,မြို့နယ်,Township,"ဟိုပုံး, ပအိုဝ်းကိုယ်ပိုင်အုပ်ချုပ်ခွင့်ရဒေသ, တောင်ကြီးခရိုင, ရှမ်းပြည်နယ်တောင်ပိုင်း, ရှမ်းပြည်နယ် Shan State, Myanmar","(21.00033395, 97.25843348546186, 0.0)",21.00033395,97.25843348546186,0.0
362,MMR014004,Hsihseng,ဆီဆိုင်,မြို့နယ်,Township,"ဆီဆိုင်, ပအိုဝ်းကိုယ်ပိုင်အုပ်ချုပ်ခွင့်ရဒေသ, တောင်ကြီးခရိုင, ရှမ်းပြည်နယ်တောင်ပိုင်း, ရှမ်းပြည်နယ် Shan State, 140104, Myanmar","(20.242778649999998, 97.3063255218525, 0.0)",20.242778649999998,97.3063255218525,0.0
363,MMR014005,Kalaw,ကလော,မြို့နယ်,Township,"ဝဵင်းၵလေႃး, ကလော, တောင်ကြီးခရိုင, ရှမ်းပြည်နယ်တောင်ပိုင်း, ရှမ်းပြည်နယ် Shan State, 9782, Myanmar","(20.6356031, 96.5656373, 0.0)",20.6356031,96.5656373,0.0
364,MMR014006,Pindaya,ပင်းတယ,မြို့နယ်,Township,"ပင်းတယ, ဓနုကိုယ်ပိုင်အုပ်ချုပ်ခွင့်ရဒေသ, တောင်ကြီးခရိုင, ရှမ်းပြည်နယ်တောင်ပိုင်း, ရှမ်းပြည်နယ် Shan State, Myanmar","(20.94158, 96.662794, 0.0)",20.94158,96.662794,0.0
365,MMR014007,Ywangan,ရွာငံ,မြို့နယ်,Township,"ရွာငံ, ဓနုကိုယ်ပိုင်အုပ်ချုပ်ခွင့်ရဒေသ, တောင်ကြီးခရိုင, ရှမ်းပြည်နယ်တောင်ပိုင်း, ရှမ်းပြည်နယ် Shan State, Myanmar","(21.162815, 96.442291, 0.0)",21.162815,96.442291,0.0
366,MMR014008,Lawksawk,ရပ်စောက်,မြို့နယ်,Township,"ရပ်စောက်, တောင်ကြီးခရိုင, ရှမ်းပြည်နယ်တောင်ပိုင်း, ရှမ်းပြည်နယ် Shan State, 06071, Myanmar","(21.63542045, 96.97110028261599, 0.0)",21.63542045,96.97110028261599,0.0
367,MMR014009,Pinlaung,ပင်လောင်း,မြို့နယ်,Township,"ပင်လောင်း, ပအိုဝ်းကိုယ်ပိုင်အုပ်ချုပ်ခွင့်ရဒေသ, တောင်ကြီးခရိုင, ရှမ်းပြည်နယ်တောင်ပိုင်း, ရှမ်းပြည်နယ် Shan State, 06053, Myanmar","(20.137476, 96.67366002656135, 0.0)",20.137476,96.67366002656135,0.0
368,MMR014010,Pekon,ဖယ်ခုံ,မြို့နယ်,Township,"ဖယ်ခုံ, တောင်ကြီးခရိုင, ရှမ်းပြည်နယ်တောင်ပိုင်း, ရှမ်းပြည်နယ် Shan State, Myanmar","(19.6445967, 96.79529321249998, 0.0)",19.6445967,96.79529321249998,0.0
369,MMR014011,Loilen,လွိုင်လင်,မြို့နယ်,Township,"လွိုင်လင်, လွိုင်လင်ခရိုင်, ရှမ်းပြည်နယ်တောင်ပိုင်း, ရှမ်းပြည်နယ် Shan State, Myanmar","(20.86367475, 97.4635992725022, 0.0)",20.86367475,97.4635992725022,0.0
370,MMR014012,Laihka,လဲချား,မြို့နယ်,Township,"လဲချား, လွိုင်လင်ခရိုင်, ရှမ်းပြည်နယ်တောင်ပိုင်း, ရှမ်းပြည်နယ် Shan State, Myanmar","(21.29966865, 97.76209612370835, 0.0)",21.29966865,97.76209612370835,0.0
371,MMR014013,Nansang,နမ့်စန်,မြို့နယ်,Township,"နမ့်စန်, လွိုင်လင်ခရိုင်, ရှမ်းပြည်နယ်တောင်ပိုင်း, ရှမ်းပြည်နယ် Shan State, 06161, Myanmar","(20.83260345, 97.85092585039908, 0.0)",20.83260345,97.85092585039908,0.0
372,MMR014014,Kunhing,ကွန်ဟိန်း,မြို့နယ်,Township,"ကွန်ဟိန်း, လွိုင်လင်ခရိုင်, ရှမ်းပြည်နယ်တောင်ပိုင်း, ရှမ်းပြည်နယ် Shan State, 85008, Myanmar","(21.259518, 98.46762123976967, 0.0)",21.259518,98.46762123976967,0.0
373,MMR014015,Kyethi,ကျေးသီး,မြို့နယ်,Township,"ကျေးသီး, လွိုင်လင်ခရိုင်, ရှမ်းပြည်နယ်တောင်ပိုင်း, ရှမ်းပြည်နယ် Shan State, 4980, Myanmar","(21.6770639, 98.05656876304579, 0.0)",21.6770639,98.05656876304579,0.0
374,MMR014016,Mongkaing,မိုင်းကိုင်,မြို့နယ်,Township,"မိုင်းကိုင်, လွိုင်လင်ခရိုင်, ရှမ်းပြည်နယ်တောင်ပိုင်း, ရှမ်းပြည်နယ် Shan State, Myanmar","(21.746495850000002, 97.50346058062559, 0.0)",21.746495850000002,97.50346058062559,0.0
375,MMR014017,Monghsu,မိုင်းရှူး,မြို့နယ်,Township,"မိုင်းရှူး, လွိုင်လင်ခရိုင်, ရှမ်းပြည်နယ်တောင်ပိုင်း, ရှမ်းပြည်နယ် Shan State, Myanmar","(21.793477250000002, 98.36543972655923, 0.0)",21.793477250000002,98.36543972655923,0.0
376,MMR014018,Langkho,လင်းခေး,မြို့နယ်,Township,"လၢင်းၶိူဝ်း, လင်းခေးခရိုင်, ရှမ်းပြည်နယ်တောင်ပိုင်း, ရှမ်းပြည်နယ် Shan State, Myanmar","(20.3438933, 98.0057791, 0.0)",20.3438933,98.0057791,0.0
377,MMR014019,Mongnai,မိုးနဲ,မြို့နယ်,Township,"မိုးနဲ, လင်းခေးခရိုင်, ရှမ်းပြည်နယ်တောင်ပိုင်း, ရှမ်းပြည်နယ် Shan State, Myanmar","(20.6924379, 98.19400001175845, 0.0)",20.6924379,98.19400001175845,0.0
378,MMR014020,Mawkmai,မောက်မယ်,မြို့နယ်,Township,"မောက်မယ်, လင်းခေးခရိုင်, ရှမ်းပြည်နယ်တောင်ပိုင်း, ရှမ်းပြည်နယ် Shan State, Myanmar","(20.09605965, 97.57281943839239, 0.0)",20.09605965,97.57281943839239,0.0
379,MMR014021,Mongpan,မိုင်းပန်,မြို့နယ်,Township,"မိူင်းပၼ်ႇ, လင်းခေးခရိုင်, ရှမ်းပြည်နယ်တောင်ပိုင်း, ရှမ်းပြည်နယ် Shan State, Myanmar","(20.3186811, 98.361903, 0.0)",20.3186811,98.361903,0.0
380,MMR015001,Lashio,လားရှိုး,မြို့နယ်,Township,"လႃႈသဵဝ်ႈ, လားရှိုးခရိုင်, ရှမ်းပြည်နယ်မြောက်ပိုင်း, ရှမ်းပြည်နယ် Shan State, 06301, Myanmar","(22.933333, 97.75, 0.0)",22.933333,97.75,0.0
381,MMR015002,Hseni,သိန္နီ,မြို့နယ်,Township,"သိန္နီ, လားရှိုးခရိုင်, ရှမ်းပြည်နယ်မြောက်ပိုင်း, ရှမ်းပြည်နယ် Shan State, Myanmar","(23.2589046, 98.13604604991531, 0.0)",23.2589046,98.13604604991531,0.0
382,MMR015003,Mongyai,မိုင်းရယ်,မြို့နယ်,Township,"မိုင်းရယ်, လားရှိုးခရိုင်, ရှမ်းပြည်နယ်မြောက်ပိုင်း, ရှမ်းပြည်နယ် Shan State, Myanmar","(22.4465142, 97.99785532837917, 0.0)",22.4465142,97.99785532837917,0.0
383,MMR015004,Tangyan,တန့်ယန်း,မြို့နယ်,Township,"တန့်ယန်း, လားရှိုးခရိုင်, ရှမ်းပြည်နယ်မြောက်ပိုင်း, ရှမ်းပြည်နယ် Shan State, Myanmar","(22.41219605, 98.42439569329905, 0.0)",22.41219605,98.42439569329905,0.0
384,MMR015005,Pangsang (Panghkam),ပန်ဆန်း(ပန်ခမ်း),မြို့နယ်,Township,,,,,
385,MMR015006,Narphan,နားဖန်း,မြို့နယ်,Township,,,,,
386,MMR015007,Pangwaun,ပန်ဝိုင်,မြို့နယ်,Township,"ပန်ဝိုင်, ဝကိုယ်ပိုင်အုပ်ချုပ်ခွင့်ရတိုင်း, ဟိုပန်ခရိုင်, ရှမ်းပြည်နယ်မြောက်ပိုင်း, ရှမ်းပြည်နယ် Shan State, Wa State Northern Region, Myanmar","(23.06803225, 99.28035386869303, 0.0)",23.06803225,99.28035386869303,0.0
387,MMR015008,Mongmao,မိုင်းမော,မြို့နယ်,Township,"မိုင်းမော, ဝကိုယ်ပိုင်အုပ်ချုပ်ခွင့်ရတိုင်း, ဟိုပန်ခရိုင်, ရှမ်းပြည်နယ်မြောက်ပိုင်း, ရှမ်းပြည်နယ် Shan State, Wa State Northern Region, Myanmar","(22.9500346, 98.82583852013164, 0.0)",22.9500346,98.82583852013164,0.0
388,MMR015009,Muse,မူဆယ်,မြို့နယ်,Township,"မူဆယ်, မူဆယ်ခရိုင်, ရှမ်းပြည်နယ်မြောက်ပိုင်း, ရှမ်းပြည်နယ် Shan State, Myanmar","(23.900994400000002, 98.10844187851924, 0.0)",23.900994400000002,98.10844187851924,0.0
389,MMR015010,Namhkan,နမ့်ခမ်း,မြို့နယ်,Township,"နမ့်ခမ်း, မူဆယ်ခရိုင်, ရှမ်းပြည်နယ်မြောက်ပိုင်း, ရှမ်းပြည်နယ် Shan State, Myanmar","(23.715186250000002, 97.5661385568209, 0.0)",23.715186250000002,97.5661385568209,0.0
390,MMR015011,Kutkai,ကွတ်ခိုင်,မြို့နယ်,Township,"ကွတ်ခိုင်, မူဆယ်ခရိုင်, ရှမ်းပြည်နယ်မြောက်ပိုင်း, ရှမ်းပြည်နယ် Shan State, Myanmar","(23.64213505, 98.14793004051415, 0.0)",23.64213505,98.14793004051415,0.0
391,MMR015012,Kyaukme,ကျောက်မဲ,မြို့နယ်,Township,"ကျောက်မဲ, ကျောက်မဲခရိုင်, ရှမ်းပြည်နယ်မြောက်ပိုင်း, ရှမ်းပြည်နယ် Shan State, Myanmar","(22.59965065, 96.80459511035602, 0.0)",22.59965065,96.80459511035602,0.0
392,MMR015013,Nawnghkio,နောင်ချို,မြို့နယ်,Township,"နောင်ချို, ကျောက်မဲခရိုင်, ရှမ်းပြည်နယ်မြောက်ပိုင်း, ရှမ်းပြည်နယ် Shan State, Myanmar","(22.3689555, 96.60958390455181, 0.0)",22.3689555,96.60958390455181,0.0
393,MMR015014,Hsipaw,သီပေါ,မြို့နယ်,Township,"သီပေါ, ကျောက်မဲခရိုင်, ရှမ်းပြည်နယ်မြောက်ပိုင်း, ရှမ်းပြည်နယ် Shan State, Myanmar","(22.40190975, 97.55452358098077, 0.0)",22.40190975,97.55452358098077,0.0
394,MMR015015,Namtu,နမ္မတူ,မြို့နယ်,Township,"နမ္မတူ, ကျောက်မဲခရိုင်, ရှမ်းပြည်နယ်မြောက်ပိုင်း, ရှမ်းပြည်နယ် Shan State, Myanmar","(23.006810299999998, 97.47445131937138, 0.0)",23.006810299999998,97.47445131937138,0.0
395,MMR015016,Namhsan,နမ့်ဆန်,မြို့နယ်,Township,"နမ့်ဆန်, ပလောင်ကိုယ်ပိုင်အုပ်ချုပ်ခွင့်ရဒေသ, ကျောက်မဲခရိုင်, ရှမ်းပြည်နယ်မြောက်ပိုင်း, ရှမ်းပြည်နယ် Shan State, Myanmar","(22.94588725, 97.20705503604887, 0.0)",22.94588725,97.20705503604887,0.0
396,MMR015017,Mongmit,မိုးမိတ်,မြို့နယ်,Township,"မိုးမိတ်, မိုးမိတ်ခရိုင်, ရှမ်းပြည်နယ်မြောက်ပိုင်း, ရှမ်းပြည်နယ် Shan State, Myanmar","(23.162595, 96.540304175, 0.0)",23.162595,96.540304175,0.0
397,MMR015018,Mabein,မဘိမ်း,မြို့နယ်,Township,"မဘိမ်း, မိုးမိတ်ခရိုင်, ရှမ်းပြည်နယ်မြောက်ပိုင်း, ရှမ်းပြည်နယ် Shan State, Myanmar","(23.70130125, 96.72718603132449, 0.0)",23.70130125,96.72718603132449,0.0
398,MMR015019,Manton,မန်တုံ,မြို့နယ်,Township,"မန်တုံ, ပလောင်ကိုယ်ပိုင်အုပ်ချုပ်ခွင့်ရဒေသ, ကျောက်မဲခရိုင်, ရှမ်းပြည်နယ်မြောက်ပိုင်း, ရှမ်းပြည်နယ် Shan State, Myanmar","(23.394021549999998, 97.34434555713452, 0.0)",23.394021549999998,97.34434555713452,0.0
399,MMR015020,Kunlong,ကွမ်းလုံ,မြို့နယ်,Township,"ၵုၼ်လူင်, ကွမ်းလုံခရိုင်, ရှမ်းပြည်နယ်မြောက်ပိုင်း, ရှမ်းပြည်နယ် Shan State, Myanmar","(23.41799, 98.655021, 0.0)",23.41799,98.655021,0.0
400,MMR015021,Hopang,ဟိုပန်,မြို့နယ်,Township,"ဟိုပန်, ဝကိုယ်ပိုင်အုပ်ချုပ်ခွင့်ရတိုင်း, ဟိုပန်ခရိုင်, ရှမ်းပြည်နယ်မြောက်ပိုင်း, ရှမ်းပြည်နယ် Shan State, Wa State Northern Region, 150402, Myanmar","(23.2210209, 98.78172603586486, 0.0)",23.2210209,98.78172603586486,0.0
401,MMR015022,Laukkaing,လောက်ကိုင်,မြို့နယ်,Township,"လောက်ကိုင်, 果敢自治区(ကိုးကန့်), 老街县(လောက်ကိုင်ခရိုင်), ရှမ်းပြည်နယ်မြောက်ပိုင်း, ရှမ်းပြည်နယ် Shan State, Myanmar","(23.6476085, 98.7338866404925, 0.0)",23.6476085,98.7338866404925,0.0
402,MMR015023,Konkyan,ကုန်းကြမ်း,မြို့နယ်,Township,"ကုန်းကြမ်း, 果敢自治区(ကိုးကန့်), 老街县(လောက်ကိုင်ခရိုင်), ရှမ်းပြည်နယ်မြောက်ပိုင်း, ရှမ်းပြည်နယ် Shan State, Myanmar","(23.8324005, 98.5362597, 0.0)",23.8324005,98.5362597,0.0
403,MMR015024,Matman,မက်မန်း,မြို့နယ်,Township,"မက်မန်း, ဝကိုယ်ပိုင်အုပ်ချုပ်ခွင့်ရတိုင်း, မက်မန်းခရိုင် Matman, ရှမ်းပြည်နယ်မြောက်ပိုင်း, ရှမ်းပြည်နယ် Shan State, Myanmar","(21.870731, 98.79429983924973, 0.0)",21.870731,98.79429983924973,0.0
404,MMR016001,Kengtung,ကျိုင်းတုံ,မြို့နယ်,Township,"ၵဵင်းတုင်, ကျိုင်းတုံခရိုင်, ရှမ်းပြည်နယ် အရှေ့ပိုင်း, ရှမ်းပြည်နယ် Shan State, Myanmar","(21.2918037, 99.6028652, 0.0)",21.2918037,99.6028652,0.0
405,MMR016002,Mongkhet,မိုင်းခတ်,မြို့နယ်,Township,"မိုင်းခတ်, ကျိုင်းတုံခရိုင်, ရှမ်းပြည်နယ် အရှေ့ပိုင်း, ရှမ်းပြည်နယ် Shan State, Wa State Northern Region, Myanmar","(21.69292385, 99.31751733618913, 0.0)",21.69292385,99.31751733618913,0.0
406,MMR016003,Mongyang,မိုင်းယန်း,မြို့နယ်,Township,"မိုင်းယန်း, ကျိုင်းတုံခရိုင်, ရှမ်းပြည်နယ် အရှေ့ပိုင်း, ရှမ်းပြည်နယ် Shan State, Wa State Northern Region, Myanmar","(21.9329082, 99.52370706860776, 0.0)",21.9329082,99.52370706860776,0.0
407,MMR016005,Mongla,မိုင်းလား,မြို့နယ်,Township,"မိုင်းလား, ကျိုင်းတုံခရိုင်, ရှမ်းပြည်နယ် အရှေ့ပိုင်း, ရှမ်းပြည်နယ် Shan State, Myanmar","(21.5469198, 99.92956480146822, 0.0)",21.5469198,99.92956480146822,0.0
408,MMR016006,Monghsat,မိုင်းဆတ်,မြို့နယ်,Township,"မိုင်းဆတ်မြို့, မိုင်းဆတ်ခရိုင်, ရှမ်းပြည်နယ် အရှေ့ပိုင်း, ရှမ်းပြည်နယ် Shan State, Myanmar","(20.535314, 99.256089, 0.0)",20.535314,99.256089,0.0
409,MMR016007,Mongping,မိုင်းပျဉ်း,မြို့နယ်,Township,,,,,
410,MMR016008,Mongton,မိုင်းတုံ,မြို့နယ်,Township,"မိူင်းတူၼ်, မိုင်းဆတ်ခရိုင်, ရှမ်းပြည်နယ် အရှေ့ပိုင်း, ရှမ်းပြည်နယ် Shan State, Myanmar","(20.296131, 98.897198, 0.0)",20.296131,98.897198,0.0
411,MMR016009,Tachileik,တာချီလိတ်,မြို့နယ်,Township,"တႃႈၶီႈလဵၵ်း, တာချီလိတ်ခရိုင်, ရှမ်းပြည်နယ် အရှေ့ပိုင်း, ရှမ်းပြည်နယ် Shan State, 57120, Myanmar","(20.4490789, 99.8842143, 0.0)",20.4490789,99.8842143,0.0
412,MMR016010,Monghpyak,မိုင်းဖြတ်,မြို့နယ်,Township,"မိူင်းၽျၢၵ်ႈ, မိုင်းဖြတ်ခရိုင်, ရှမ်းပြည်နယ် အရှေ့ပိုင်း, ရှမ်းပြည်နယ် Shan State, Myanmar","(20.8784297, 99.9255692, 0.0)",20.8784297,99.9255692,0.0
413,MMR016011,Mongyawng,မိုင်းယောင်း,မြို့နယ်,Township,"မိုင်းယောင်း, မိုင်းဖြတ်ခရိုင်, ရှမ်းပြည်နယ် အရှေ့ပိုင်း, ရှမ်းပြည်နယ် Shan State, Myanmar","(21.3708325, 100.56314494374516, 0.0)",21.3708325,100.56314494374516,0.0
414,MMR017001,Pathein,ပုသိမ်,မြို့နယ်,Township,"ပုသိမ်, Pathein, ဧရာဝတီတိုင်းဒေသကြီး, Myanmar","(16.9079855, 94.55199096551516, 0.0)",16.9079855,94.55199096551516,0.0
415,MMR017002,Kangyidaunt,ကန်ကြီးထောင့်,မြို့နယ်,Township,"ကန်ကြီးထောင့်, Pathein, ဧရာဝတီတိုင်းဒေသကြီး, Myanmar","(16.790438100000003, 94.88734781287103, 0.0)",16.790438100000003,94.88734781287103,0.0
416,MMR017003,Thabaung,သာပေါင်း,မြို့နယ်,Township,"သာပေါင်း, Pathein, ဧရာဝတီတိုင်းဒေသကြီး, Myanmar","(17.1807133, 94.75553704448188, 0.0)",17.1807133,94.75553704448188,0.0
417,MMR017004,Ngapudaw,ငပုတော,မြို့နယ်,Township,"ငပုတော, Pathein, ဧရာဝတီတိုင်းဒေသကြီး, Myanmar","(16.342192, 94.42019414125038, 0.0)",16.342192,94.42019414125038,0.0
418,MMR017005,Kyonpyaw,ကျုံပျော်,မြို့နယ်,Township,"ကျုံပျော်, Pathein, ဧရာဝတီတိုင်းဒေသကြီး, Myanmar","(17.3195013, 95.28611130762877, 0.0)",17.3195013,95.28611130762877,0.0
419,MMR017006,Yegyi,ရေကြည်,မြို့နယ်,Township,"ရေကြည်, Pathein, ဧရာဝတီတိုင်းဒေသကြီး, Myanmar","(17.3501109, 94.95631959426856, 0.0)",17.3501109,94.95631959426856,0.0
420,MMR017007,Kyaunggon,ကျောင်းကုန်း,မြို့နယ်,Township,"ကျောင်းကုန်း, Pathein, ဧရာဝတီတိုင်းဒေသကြီး, Myanmar","(17.05761315, 95.18773645858303, 0.0)",17.05761315,95.18773645858303,0.0
421,MMR017008,Hinthada,ဟင်္သာတ,မြို့နယ်,Township,"ဟင်္သာတ, Hinthada, ဧရာဝတီတိုင်းဒေသကြီး, Myanmar","(17.620633249999997, 95.39117494347299, 0.0)",17.620633249999997,95.39117494347299,0.0
422,MMR017009,Zalun,ဇလွန်,မြို့နယ်,Township,"ဇလွန်, Hinthada, ဧရာဝတီတိုင်းဒေသကြီး, Myanmar","(17.480958, 95.61822523083407, 0.0)",17.480958,95.61822523083407,0.0
423,MMR017010,Lemyethna,လေးမျက်နှာ,မြို့နယ်,Township,"လေးမျက်နှာ, Hinthada, ဧရာဝတီတိုင်းဒေသကြီး, Myanmar","(17.60274745, 95.0002042437998, 0.0)",17.60274745,95.0002042437998,0.0
424,MMR017011,Myanaung,မြန်အောင်,မြို့နယ်,Township,"မြန်အောင်, Hinthada, ဧရာဝတီတိုင်းဒေသကြီး, Myanmar","(18.1085255, 95.14321809927287, 0.0)",18.1085255,95.14321809927287,0.0
425,MMR017012,Kyangin,ကြံခင်း,မြို့နယ်,Township,"ကြံခင်း, Hinthada, ဧရာဝတီတိုင်းဒေသကြီး, Myanmar","(18.31680815, 95.05779173258261, 0.0)",18.31680815,95.05779173258261,0.0
426,MMR017013,Ingapu,အင်္ဂပူ,မြို့နယ်,Township,"အင်္ဂပူ, Hinthada, ဧရာဝတီတိုင်းဒေသကြီး, Myanmar","(17.84032085, 95.18103278203236, 0.0)",17.84032085,95.18103278203236,0.0
427,MMR017014,Myaungmya,မြောင်းမြ,မြို့နယ်,Township,"မြောင်းမြ, Myaungmya, ဧရာဝတီတိုင်းဒေသကြီး, Myanmar","(16.53129735, 94.9138158856463, 0.0)",16.53129735,94.9138158856463,0.0
428,MMR017015,Einme,အိမ်မဲ,မြို့နယ်,Township,"အိမ်မဲ, Myaungmya, ဧရာဝတီတိုင်းဒေသကြီး, Myanmar","(16.7645637, 95.08117526827087, 0.0)",16.7645637,95.08117526827087,0.0
429,MMR017016,Labutta,လပွတ္တာ,မြို့နယ်,Township,"လပွတ္တာ, Labutta, ဧရာဝတီတိုင်းဒေသကြီး, Myanmar","(15.96214255, 94.94954345009798, 0.0)",15.96214255,94.94954345009798,0.0
430,MMR017017,Wakema,ဝါးခယ်မ,မြို့နယ်,Township,"ဝါးခယ်မ, Myaungmya, ဧရာဝတီတိုင်းဒေသကြီး, Myanmar","(16.55167495, 95.22511672911895, 0.0)",16.55167495,95.22511672911895,0.0
431,MMR017018,Mawlamyinegyun,မော်လမြိုင်ကျွန်း,မြို့နယ်,Township,"မော်လမြိုင်ကျွန်း, Labutta, ဧရာဝတီတိုင်းဒေသကြီး, Myanmar","(16.3527339, 95.25289907403995, 0.0)",16.3527339,95.25289907403995,0.0
432,MMR017019,Maubin,မအူပင်,မြို့နယ်,Township,"မအူပင်, Maubin, ဧရာဝတီတိုင်းဒေသကြီး, 10181, Myanmar","(16.7061423, 95.6326346472973, 0.0)",16.7061423,95.6326346472973,0.0
433,MMR017020,Pantanaw,ပန်းတနော်,မြို့နယ်,Township,"ပန်းတနော်, Maubin, ဧရာဝတီတိုင်းဒေသကြီး, 10171, Myanmar","(16.98973975, 95.37284789032651, 0.0)",16.98973975,95.37284789032651,0.0
434,MMR017021,Nyaungdon,ညောင်တုန်း,မြို့နယ်,Township,"ညောင်တုန်း, Maubin, ဧရာဝတီတိုင်းဒေသကြီး, Myanmar","(17.0326858, 95.68513430684948, 0.0)",17.0326858,95.68513430684948,0.0
435,MMR017022,Danubyu,ဓနုဖြူ,မြို့နယ်,Township,"ဓနုဖြူ, Maubin, ဧရာဝတီတိုင်းဒေသကြီး, Myanmar","(17.242142049999998, 95.55412064155878, 0.0)",17.242142049999998,95.55412064155878,0.0
436,MMR017023,Pyapon,ဖျာပုံ,မြို့နယ်,Township,"ဖျာပုံ, Pyapon, ဧရာဝတီတိုင်းဒေသကြီး, Myanmar","(16.06170115, 95.64946899727501, 0.0)",16.06170115,95.64946899727501,0.0
437,MMR017024,Bogale,ဘိုကလေး,မြို့နယ်,Township,"ဘိုကလေး, Pyapon, ဧရာဝတီတိုင်းဒေသကြီး, Myanmar","(16.128179600000003, 95.45073234148815, 0.0)",16.128179600000003,95.45073234148815,0.0
438,MMR017025,Kyaiklat,ကျိုက်လတ်,မြို့နယ်,Township,"ကျိုက်လတ်, Pyapon, ဧရာဝတီတိုင်းဒေသကြီး, Myanmar","(16.506579, 95.65118257807637, 0.0)",16.506579,95.65118257807637,0.0
439,MMR017026,Dedaye,ဒေးဒရဲ,မြို့နယ်,Township,"ဒေးဒရဲ, Pyapon, ဧရာဝတီတိုင်းဒေသကြီး, 10261, Myanmar","(16.3048976, 95.79808923579134, 0.0)",16.3048976,95.79808923579134,0.0
440,MMR018001,Zay Yar Thi Ri,ဇေယျာသီရိ,မြို့နယ်,Township,"ဇေယျာသီရိ, ဥတ္တရခရိုင်, နေပြည်တော် ပြည်ထောင်စုနယ်မြ, 15013, Myanmar","(19.862, 96.309, 0.0)",19.862,96.309,0.0
441,MMR018002,Za Bu Thi Ri,ဇမ္ဗူသီရိ,မြို့နယ်,Township,"ဇမ္ဗူသီရိ, ဒက္ခိဏခရိုင်, နေပြည်တော် ပြည်ထောင်စုနယ်မြ, 15011, Myanmar","(19.764, 96.061, 0.0)",19.764,96.061,0.0
442,MMR018003,Tatkon,တပ်ကုန်း,မြို့နယ်,Township,"တပ်ကုန်း, ဓနုကိုယ်ပိုင်အုပ်ချုပ်ခွင့်ရဒေသ, တောင်ကြီးခရိုင, ရှမ်းပြည်နယ်တောင်ပိုင်း, ရှမ်းပြည်နယ် Shan State, Myanmar","(21.09828, 96.509819, 0.0)",21.09828,96.509819,0.0
443,MMR018004,Det Khi Na Thi Ri,ဒက္ခိဏသီရိ,မြို့နယ်,Township,"ဒက္ခိဏသီရိ, ဒက္ခိဏခရိုင်, နေပြည်တော် ပြည်ထောင်စုနယ်မြ, Myanmar","(19.719, 96.067, 0.0)",19.719,96.067,0.0
444,MMR018005,Poke Ba Thi Ri,ပုဗ္ဗသီရိ,မြို့နယ်,Township,"ပုဗ္ဗသီရိ, ဥတ္တရခရိုင်, နေပြည်တော် ပြည်ထောင်စုနယ်မြ, Myanmar","(19.806, 96.183, 0.0)",19.806,96.183,0.0
445,MMR018006,Pyinmana,ပျဉ်းမနား,မြို့နယ်,Township,"ပျဉ်းမနား, ဒက္ခိဏခရိုင်, နေပြည်တော် ပြည်ထောင်စုနယ်မြ, 100604, Myanmar","(19.738964, 96.2088371, 0.0)",19.738964,96.2088371,0.0
446,MMR018007,Lewe,လယ်ဝေး,မြို့နယ်,Township,"လယ်ဝေး, ဒက္ခိဏခရိုင်, နေပြည်တော် ပြည်ထောင်စုနယ်မြ, 095, Myanmar","(19.63467, 96.110069, 0.0)",19.63467,96.110069,0.0
447,MMR018008,Oke Ta Ra Thi Ri,ဥတ္တရသီရိ,မြို့နယ်,Township,"ဥတ္တရသီရိ, ဥတ္တရခရိုင်, နေပြည်တော် ပြည်ထောင်စုနယ်မြ, Myanmar","(19.891, 96.043, 0.0)",19.891,96.043,0.0
448,MMR001001701,Myitkyina Town,မြစ်ကြီးနား,မြို့,Town,"မြစ်ကြီးနား, မြစ်ကြီးနားခရိုင်, ကချင်ပြည်နယ် (Kachin), Myanmar","(25.3833313, 97.3999925, 0.0)",25.3833313,97.3999925,0.0
449,MMR001001702,Sinbo Town,ဆင်ဘို,မြို့,Town,"ဆင်ဘို, မြစ်ကြီးနားခရိုင်, ကချင်ပြည်နယ် (Kachin), Myanmar","(24.779234, 97.039169, 0.0)",24.779234,97.039169,0.0
450,MMR001002701,Waingmaw Town,ဝိုင်းမော်,မြို့,Town,"ဝိုင်းမော်, မြစ်ကြီးနားခရိုင်, ကချင်ပြည်နယ် (Kachin), Myanmar","(25.3537725, 97.4440251, 0.0)",25.3537725,97.4440251,0.0
451,MMR001002702,Sadung Town,ဆဒုံး,မြို့,Town,"ဆဒုံး, မြစ်ကြီးနားခရိုင်, ကချင်ပြည်နယ် (Kachin), Myanmar","(25.3962189, 97.8984954, 0.0)",25.3962189,97.8984954,0.0
452,MMR001002703,Kan Paik Ti Town,ကန်ပိုက်တီ,မြို့,Town,"ကန်ပိုက်တီ, မြစ်ကြီးနားခရိုင်, ကချင်ပြည်နယ် (Kachin), Myanmar","(25.4058664, 98.1181275, 0.0)",25.4058664,98.1181275,0.0
453,MMR001003701,Injangyang Town,အင်ဂျန်းယန်,မြို့,Town,"အင်ဂျန်းယန်, မြစ်ကြီးနားခရိုင်, ကချင်ပြည်နယ် (Kachin), Myanmar","(25.8303708, 97.728043, 0.0)",25.8303708,97.728043,0.0
454,MMR001004701,Tanai Town,တနိုင်း,မြို့,Town,"တနိုင်း, မြစ်ကြီးနားခရိုင်, ကချင်ပြည်နယ် (Kachin), Myanmar","(26.403813800000002, 96.60279485997367, 0.0)",26.403813800000002,96.60279485997367,0.0
455,MMR001004702,Shin Bway Yang Town,ရှင်ဗွေယန်,မြို့,Town,"ရှင်ဗွေယန်, မြစ်ကြီးနားခရိုင်, ကချင်ပြည်နယ် (Kachin), Myanmar","(26.69478, 96.2094, 0.0)",26.69478,96.2094,0.0
456,MMR001005701,Chipwi Town,ချီဖွေ,မြို့,Town,"ချီဖွေ, မြစ်ကြီးနားခရိုင်, ကချင်ပြည်နယ် (Kachin), Myanmar","(25.885789, 98.1305242, 0.0)",25.885789,98.1305242,0.0
457,MMR001005702,Pang War Town,ပန်ဝါမ,မြို့,Town,,,,,
458,MMR001006701,Tsawlaw Town,ဆော့လော်,မြို့,Town,"ဆော့လော်, မြစ်ကြီးနားခရိုင်, ကချင်ပြည်နယ် (Kachin), Myanmar","(26.1537756, 98.2711332, 0.0)",26.1537756,98.2711332,0.0
459,MMR001007701,Mohnyin Town,မိုးညှင်း,မြို့,Town,"မိုးညှင်း, မိုးညှင်းခရိုင်, ကချင်ပြည်နယ် (Kachin), Myanmar","(24.779057, 96.373198, 0.0)",24.779057,96.373198,0.0
460,MMR001007702,Hopin Town,ဟိုပင်,မြို့,Town,"ဟိုပင်, မိုးညှင်းခရိုင်, ကချင်ပြည်နယ် (Kachin), Myanmar","(24.9916524, 96.528316, 0.0)",24.9916524,96.528316,0.0
461,MMR001007703,Inn Taw Gyi Town,အင်းတော်ကြီး,မြို့,Town,"အင်းတော်ကြီး, ဖားကန့် - မိုးညှင်း လမ်း, Nyaung bin, မိုးညှင်းခရိုင်, ကချင်ပြည်နယ် (Kachin), Myanmar","(25.153091449999998, 96.33671081356349, 0.0)",25.153091449999998,96.33671081356349,0.0
462,MMR001007704,Nam Mun Town,နန့်မွန်း,မြို့,Town,,,,,
463,MMR001007705,Nam Mar Town,နန်းမား,မြို့,Town,,,,,
464,MMR001008701,Mogaung Town,မိုးကောင်း,မြို့,Town,"မိုးကောင်း, မိုးညှင်းခရိုင်, ကချင်ပြည်နယ် (Kachin), ၁၁၀၂, Myanmar","(25.3018588, 96.9416995, 0.0)",25.3018588,96.9416995,0.0
465,MMR001008702,Nammatee Town,နမ္မတီး,မြို့,Town,"နမ္မတီး, မိုးညှင်းခရိုင်, ကချင်ပြည်နယ် (Kachin), Myanmar","(25.3685481, 97.0081159, 0.0)",25.3685481,97.0081159,0.0
466,MMR001009701,Hpakant Town,ဖားကန့်,မြို့,Town,"ဖားကန့်, မိုးညှင်းခရိုင်, ကချင်ပြည်နယ် (Kachin), 1161, Myanmar","(25.6123483, 96.3125388, 0.0)",25.6123483,96.3125388,0.0
467,MMR001009702,Kamaing Town,ကာမိုင်း,မြို့,Town,"ကာမိုင်း, မိုးညှင်းခရိုင်, ကချင်ပြည်နယ် (Kachin), Myanmar","(25.522595, 96.711534, 0.0)",25.522595,96.711534,0.0
468,MMR001010701,Bhamo Town,ဗန်းမော်,မြို့,Town,"ဗန်းမော်, ဗန်းမော်ခရိုင်, ကချင်ပြည်နယ် (Kachin), 074, Myanmar","(24.266667, 97.233333, 0.0)",24.266667,97.233333,0.0
469,MMR001011701,Shwegu Town,ရွှေကူ,မြို့,Town,"ရွှေကူ, ဗန်းမော်ခရိုင်, ကချင်ပြည်နယ် (Kachin), Myanmar","(24.2278257, 96.7874052, 0.0)",24.2278257,96.7874052,0.0
470,MMR001011702,Myo Hla Town,မြို့လှ,မြို့,Town,"မြို့လှ, ဗန်းမော်ခရိုင်, ကချင်ပြည်နယ် (Kachin), Myanmar","(24.479419, 96.632228, 0.0)",24.479419,96.632228,0.0
471,MMR001012701,Momauk Town,မိုးမောက်,မြို့,Town,"မိုးမောက်, ဗန်းမော်ခရိုင်, ကချင်ပြည်နယ် (Kachin), Myanmar","(24.2493952, 97.3459136, 0.0)",24.2493952,97.3459136,0.0
472,MMR001012702,Lwegel Town,လွယ်ဂျယ်,မြို့,Town,"လွယ်ဂျယ်, ဗန်းမော်ခရိုင်, ကချင်ပြည်နယ် (Kachin), Myanmar","(24.2001166, 97.7232522, 0.0)",24.2001166,97.7232522,0.0
473,MMR001012703,Dawthponeyan Town,ဒေါ့ဖုန်းယန်,မြို့,Town,"ဒေါ့ဖုန်းယန်, ဗန်းမော်ခရိုင်, ကချင်ပြည်နယ် (Kachin), Myanmar","(24.6157413, 97.4623535, 0.0)",24.6157413,97.4623535,0.0
474,MMR001013701,Mansi Town,မံစီ,မြို့,Town,"မံစီ, ဗန်းမော်ခရိုင်, ကချင်ပြည်နယ် (Kachin), Myanmar","(23.9183825, 97.29555023001953, 0.0)",23.9183825,97.29555023001953,0.0
475,MMR001014701,Puta-O Town,ပူတာအို,မြို့,Town,"ပူတာအို, ပူတာအိုခရိုင်, ကချင်ပြည်နယ် (Kachin), 01051, Myanmar","(27.3097462, 97.4173317, 0.0)",27.3097462,97.4173317,0.0
476,MMR001015701,Sumprabum Town,ဆွမ်ပရာဘွမ်,မြို့,Town,"ဆွမ်ပရာဘွမ်, ပူတာအိုခရိုင်, ကချင်ပြည်နယ် (Kachin), Myanmar","(26.5448191, 97.5683626, 0.0)",26.5448191,97.5683626,0.0
477,MMR001016701,Machanbaw Town,မချမ်းဘော,မြို့,Town,"မချမ်းဘော, ပူတာအိုခရိုင်, ကချင်ပြည်နယ် (Kachin), Myanmar","(27.2821236, 97.5895433, 0.0)",27.2821236,97.5895433,0.0
478,MMR001017701,Nawngmun Town,နောင်မွန်း,မြို့,Town,"နောင်မွန်း, ပူတာအိုခရိုင်, ကချင်ပြည်နယ် (Kachin), Myanmar","(27.5065429, 97.8143815, 0.0)",27.5065429,97.8143815,0.0
479,MMR001017702,Pannandin Town,ပန်နန်းဒင်,မြို့,Town,"ပန်နန်းဒင်, ပူတာအိုခရိုင်, ကချင်ပြည်နယ် (Kachin), Myanmar","(27.7281949, 97.8766825, 0.0)",27.7281949,97.8766825,0.0
480,MMR001018701,Khaunglanhpu Town,ခေါင်လန်ဖူး,မြို့,Town,"ခေါင်လန်ဖူး, ပူတာအိုခရိုင်, ကချင်ပြည်နယ် (Kachin), Myanmar","(27.061073, 98.3599129, 0.0)",27.061073,98.3599129,0.0
481,MMR002001701,Loikaw Town,လွိုင်ကော်,မြို့,Town,"လွိုင်ကော်, လွိုင်ကော်‌ခရိုင, ကယားပြည်နယ်‌ (Kayah), Myanmar","(19.674167, 97.2094441, 0.0)",19.674167,97.2094441,0.0
482,MMR002001702,Loilen Lay Town,လွိုင်လင်လေး,မြို့,Town,,,,,
483,MMR002002701,Demoso Town,ဒီးမော့ဆို,မြို့,Town,"ဒီးမော့ဆို, လွိုင်ကော်‌ခရိုင, ကယားပြည်နယ်‌ (Kayah), Myanmar","(19.45763175, 97.2828233062694, 0.0)",19.45763175,97.2828233062694,0.0
484,MMR002002702,Nan Mei Khon Town,နန်းမယ်ခုံ,မြို့,Town,,,,,
485,MMR002003701,Hpruso Town,ဖရူဆို,မြို့,Town,"ဖရူဆို, လွိုင်ကော်‌ခရိုင, ကယားပြည်နယ်‌ (Kayah), 100101, Myanmar","(19.413286, 97.122673, 0.0)",19.413286,97.122673,0.0
486,MMR002004701,Shadaw Town,ရှားတော,မြို့,Town,"ရှားတော, ဥတ္တရခရိုင်, နေပြည်တော် ပြည်ထောင်စုနယ်မြ, Myanmar","(20.105061, 96.166191, 0.0)",20.105061,96.166191,0.0
487,MMR002005701,Bawlake Town,ဘောလခဲ,မြို့,Town,"ဘောလခဲ, ဘော်လခဲခရိုင, ကယားပြည်နယ်‌ (Kayah), Myanmar","(19.1710509, 97.3421041, 0.0)",19.1710509,97.3421041,0.0
488,MMR002005702,Ywarthit Town,ရွာသစ်,မြို့,Town,"ရွာသစ်, ဘော်လခဲခရိုင, ကယားပြည်နယ်‌ (Kayah), Myanmar","(19.166731, 97.499496, 0.0)",19.166731,97.499496,0.0
489,MMR002006701,Hpasawng Town,ဖားဆောင်း,မြို့,Town,,,,,
490,MMR002007701,Mese Town,မယ်စဲ,မြို့,Town,"မယ်စဲ, ဘော်လခဲခရိုင, ကယားပြည်နယ်‌ (Kayah), Myanmar","(18.7451515, 97.5431188409926, 0.0)",18.7451515,97.5431188409926,0.0
491,MMR003001701,Hpa-An Town,ဘားအံ,မြို့,Town,"ဘားအံ, ဘားအံခရိုင်, ကရင်ပြည်နယ် (Kayin), Myanmar","(16.8902634, 97.6362745, 0.0)",16.8902634,97.6362745,0.0
492,MMR003002701,Hlaingbwe Town,လှိုင်းဘွဲ့,မြို့,Town,"လှိုင်းဘွဲ့, ဘားအံခရိုင်, ကရင်ပြည်နယ် (Kayin), Myanmar","(17.1251593, 97.8190019, 0.0)",17.1251593,97.8190019,0.0
493,MMR003002702,Paingkyon Town,ပိုင်ကျုံ,မြို့,Town,"ပိုင်ကျုံ, ဘားအံခရိုင်, ကရင်ပြည်နယ် (Kayin), Myanmar","(17.0217676, 97.9866681, 0.0)",17.0217676,97.9866681,0.0
494,MMR003002703,Shan Ywar Thit Town,ရှမ်းရွာသစ်,မြို့,Town,"ရှမ်းရွာသစ်, ဘားအံခရိုင်, ကရင်ပြည်နယ် (Kayin), Myanmar","(17.42438, 97.887784, 0.0)",17.42438,97.887784,0.0
495,MMR003003701,Hpapun Town,ဖာပွန်,မြို့,Town,"ဖာပွန်, ဖာပွန်ခရိုင်, ကရင်ပြည်နယ် (Kayin), Myanmar","(18.06496, 97.444878, 0.0)",18.06496,97.444878,0.0
496,MMR003003702,Kamarmaung Town,ကမမောင်း,မြို့,Town,"ကမမောင်း, ဖာပွန်ခရိုင်, ကရင်ပြည်နယ် (Kayin), Myanmar","(17.346884, 97.652899, 0.0)",17.346884,97.652899,0.0
497,MMR003004701,Thandaunggyi Town,သံတောင်ကြီး,မြို့,Town,"သံတောင်ကြီး, ဘားအံခရိုင်, ကရင်ပြည်နယ် (Kayin), Myanmar","(19.0545611, 96.74071154035488, 0.0)",19.0545611,96.74071154035488,0.0
498,MMR003004702,Thandaung Town,သံတောင်,မြို့,Town,"Than Taung, ပြင်ဦးလွင်ခရိုင်, မန္တလေးတိုင်း, Myanmar","(21.7979498, 96.4192383, 0.0)",21.7979498,96.4192383,0.0
499,MMR003004703,Leik Tho Town,လိပ်သို,မြို့,Town,"လိပ်သို, ဘားအံခရိုင်, ကရင်ပြည်နယ် (Kayin), Myanmar","(19.222353, 96.580974, 0.0)",19.222353,96.580974,0.0
500,MMR003004704,Baw Ga Li Town,ဘောဂလိ,မြို့,Town,"ဘောဂလိ, ဘားအံခရိုင်, ကရင်ပြည်နယ် (Kayin), Myanmar","(18.914513, 96.785645, 0.0)",18.914513,96.785645,0.0
501,MMR003005701,Myawaddy Town,မြဝတီ,မြို့,Town,"မြဝတီ, မြဝတီခရိုင်, ကရင်ပြည်နယ် (Kayin), 13052, Myanmar","(16.6871674, 98.507114, 0.0)",16.6871674,98.507114,0.0
502,MMR003005702,Su Ka Li Town,စုကလိ,မြို့,Town,"စုကလိ, မြဝတီခရိုင်, ကရင်ပြည်နယ် (Kayin), Myanmar","(16.155241, 98.5958167, 0.0)",16.155241,98.5958167,0.0
503,MMR003005703,Waw Lay Myaing (Waw Lay) Town,​ဝေါလေမြိုင်(ဝေါလေ),မြို့,Town,"ဝေါလေမြိုင်, မြဝတီခရိုင်, ကရင်ပြည်နယ် (Kayin), Myanmar","(16.293922, 98.713243, 0.0)",16.293922,98.713243,0.0
504,MMR003006701,Kawkareik Town,ကော့ကရိတ်,မြို့,Town,"ကော့ကရိတ်, ကော့ကရိတ်ခရိုင်, ကရင်ပြည်နယ် (Kayin), Myanmar","(16.555531, 98.23996, 0.0)",16.555531,98.23996,0.0
505,MMR003006702,Kyondoe Town,ကျုံဒိုး,မြို့,Town,"ကျုံဒိုး, ကော့ကရိတ်ခရိုင်, ကရင်ပြည်နယ် (Kayin), Myanmar","(16.594461, 98.043526, 0.0)",16.594461,98.043526,0.0
506,MMR003007701,Kyainseikgyi Town,ကြာအင်းဆိပ်ကြီး,မြို့,Town,"ကြာအင်းဆိပ်ကြီး, ကော့ကရိတ်ခရိုင်, ကရင်ပြည်နယ် (Kayin), 170757, Myanmar","(16.0413857, 98.1209715, 0.0)",16.0413857,98.1209715,0.0
507,MMR003007702,Hpayarthonesu Town,ဘုရားသုံးဆူ,မြို့,Town,"ဘုရားသုံးဆူ, ကော့ကရိတ်ခရိုင်, ကရင်ပြည်နယ် (Kayin), Myanmar","(15.3040495, 98.3818582, 0.0)",15.3040495,98.3818582,0.0
508,MMR003007703,Kyaikdon Town,ကျိုက်ဒုံ,မြို့,Town,"ကျိုက်ဒုံ, ကော့ကရိတ်ခရိုင်, ကရင်ပြည်နယ် (Kayin), Myanmar","(16.0028042, 98.393413, 0.0)",16.0028042,98.393413,0.0
509,MMR004001701,Falam Town,ဖလမ်း,မြို့,Town,"ဖလမ်း, ဖလမ်းခရိုင်, ချင်းပြည်နယ်‌, Myanmar","(22.9139433, 93.6790091, 0.0)",22.9139433,93.6790091,0.0
510,MMR004001702,Rihkhawdar Town,ရိခေါ်ဒါရ်,မြို့,Town,"ရိခေါ်ဒါရ်, ဖလမ်းခရိုင်, ချင်းပြည်နယ်‌, Myanmar","(23.3632468, 93.3898227, 0.0)",23.3632468,93.3898227,0.0
511,MMR004001703,Webula Town,ဝေဘူလ,မြို့,Town,"ဝေဘူလ, သံသုမာလမ်း, Mya Kha Housing, သင်္ဃန်းကျွန်း, Eastern District, ရန်ကုန်တိုင်းဒေသကြီး, 1171, Myanmar","(16.8301802, 96.2080749, 0.0)",16.8301802,96.2080749,0.0
512,MMR004002701,Hakha Town,ဟားခါး,မြို့,Town,"ဟားခါး, ဟားခါးခရိုင်, ချင်းပြည်နယ်‌, 03011, Myanmar","(22.6427551, 93.6096217, 0.0)",22.6427551,93.6096217,0.0
513,MMR004002702,Surkhua Town,ဆူရ်ခွား,မြို့,Town,,,,,
514,MMR004003701,Thantlang Town,ထန်တလန်,မြို့,Town,"ထန်တလန်, ဟားခါးခရိုင်, ချင်းပြည်နယ်‌, Myanmar","(22.69843, 93.4278, 0.0)",22.69843,93.4278,0.0
515,MMR004003702,Hnaring Town,နှာဟရိန်,မြို့,Town,,,,,
516,MMR004004701,Tedim Town,တီးတိန်,မြို့,Town,"တီးတိန်, ဖလမ်းခရိုင်, ချင်းပြည်နယ်‌, 03042, Myanmar","(23.3717349, 93.655654, 0.0)",23.3717349,93.655654,0.0
517,MMR004004702,Khaikam Town,ခိုင်ကမ်း,မြို့,Town,,,,,
518,MMR004005701,Tonzang Town,တွန်းဇန်,မြို့,Town,,,,,
519,MMR004005702,Cikha Town,ကျီခါး,မြို့,Town,"ကျီခါး, ဖလမ်းခရိုင်, ချင်းပြည်နယ်‌, Myanmar","(23.889757, 93.53347, 0.0)",23.889757,93.53347,0.0
520,MMR004006701,Mindat Town,မင်းတပ်,မြို့,Town,"မင်းတပ်, မင်းတပ်ခရိုင်, ချင်းပြည်နယ်‌, Myanmar","(21.371757, 93.973654, 0.0)",21.371757,93.973654,0.0
521,MMR004006702,M'kuiimnu Town,မကွီအိမ်နူး,မြို့,Town,"မကွီအိမ်နူး, မင်းတပ်ခရိုင်, ချင်းပြည်နယ်‌, Myanmar","(21.1730681, 93.5973939, 0.0)",21.1730681,93.5973939,0.0
522,MMR004007701,Matupi Town,မတူပီ,မြို့,Town,"မတူပီ, မင်းတပ်ခရိုင်, ချင်းပြည်နယ်‌, Myanmar","(21.596511, 93.444026, 0.0)",21.596511,93.444026,0.0
523,MMR004007702,Rezua Town,ရေဇွာ,မြို့,Town,"ရေဇွာ, မင်းတပ်ခရိုင်, ချင်းပြည်နယ်‌, Myanmar","(22.052887, 93.408569, 0.0)",22.052887,93.408569,0.0
524,MMR004007703,Lalengpi Town,လိုင်လင်းပီ,မြို့,Town,,,,,
525,MMR004008701,Kanpetlet Town,ကန်ပက်လက်,မြို့,Town,"ကန်ပက်လက်, မင်းတပ်ခရိုင်, ချင်းပြည်နယ်‌, Myanmar","(21.1933082, 94.0586224, 0.0)",21.1933082,94.0586224,0.0
526,MMR004008702,Kyin Dway Town,ကျင်ဒွေး,မြို့,Town,,,,,
527,MMR004009701,Paletwa Town,ပလက်ဝ,မြို့,Town,"ပလက်ဝ, မင်းတပ်ခရိုင်, ချင်းပြည်နယ်‌, Myanmar","(21.3064037, 92.8538238, 0.0)",21.3064037,92.8538238,0.0
528,MMR004009702,Samee Town,ဆမီး,မြို့,Town,"ဆမီး, မင်းတပ်ခရိုင်, ချင်းပြည်နယ်‌, Myanmar","(21.2929285, 93.0961863, 0.0)",21.2929285,93.0961863,0.0
529,MMR005001701,Sagaing Town,စစ်ကိုင်း,မြို့,Town,"စစ်ကိုင်း, စစ်ကိုင်းခရိုင်, စစ်ကိုင်းတိုင်း (Sagaing), Myanmar","(21.8774215, 95.9839956, 0.0)",21.8774215,95.9839956,0.0
530,MMR005001702,Sar Taung Town,ဆားတောင်,မြို့,Town,"ဆားတောင်, မိတ္ထီလာခရိုင်, မန္တလေးတိုင်း, Myanmar","(21.390612, 96.0924771, 0.0)",21.390612,96.0924771,0.0
531,MMR005002701,Myinmu Town,မြင်းမူ,မြို့,Town,"မြင်းမူ, စစ်ကိုင်းခရိုင်, စစ်ကိုင်းတိုင်း (Sagaing), Myanmar","(21.92514, 95.575851, 0.0)",21.92514,95.575851,0.0
532,MMR005003701,Myaung Town,မြောင်,မြို့,Town,"မြောင်, စစ်ကိုင်းခရိုင်, စစ်ကိုင်းတိုင်း (Sagaing), Myanmar","(21.833411, 95.42128, 0.0)",21.833411,95.42128,0.0
533,MMR005004701,Shwebo Town,ရွှေဘို,မြို့,Town,"ရွှေဘို, ရွှေဘိုခရိုင်, စစ်ကိုင်းတိုင်း (Sagaing), Myanmar","(22.5666618, 95.6999989, 0.0)",22.5666618,95.6999989,0.0
534,MMR005004702,Kyauk Myaung Town,​ကျောက်မြောင်း,မြို့,Town,"ကျောက်မြောင်း, ကျောက်ဖြူခရိုင်, ရခိုင်ပြည်နယ် (Rakhine), Myanmar","(19.43004, 93.892929, 0.0)",19.43004,93.892929,0.0
535,MMR005005701,Khin-U Town,ခင်ဦး,မြို့,Town,"ခင်ဦး, ရွှေဘိုခရိုင်, စစ်ကိုင်းတိုင်း (Sagaing), Myanmar","(22.771583, 95.6217428, 0.0)",22.771583,95.6217428,0.0
536,MMR005006701,Wetlet Town,ဝက်လက်,မြို့,Town,"ဝက်လက်, ရွှေဘိုခရိုင်, စစ်ကိုင်းတိုင်း (Sagaing), Myanmar","(22.3680785, 95.7880232, 0.0)",22.3680785,95.7880232,0.0
537,MMR005007701,Kanbalu Town,ကန့်ဘလူ,မြို့,Town,"ကန့်ဘလူ, စစ်ကိုင်းတိုင်း (Sagaing), Myanmar","(23.27235795, 95.40190856658666, 0.0)",23.27235795,95.40190856658666,0.0
538,MMR005007702,Zee Kone Town,ဇီးကုန်း,မြို့,Town,"ဇီးကုန်း, Thaton District, Mon, Myanmar","(17.5664929, 97.2536863, 0.0)",17.5664929,97.2536863,0.0
539,MMR005008701,Kyunhla Town,ကျွန်းလှ,မြို့,Town,"ကျွန်းလှ, ကျွန်းစု, Myeik District, Tanintharyi Region, Myanmar","(12.2070692, 98.14151920028337, 0.0)",12.2070692,98.14151920028337,0.0
540,MMR005009701,Ye-U Town,ရေဦး,မြို့,Town,"ရေဦး, ကန့်ဘလူ, စစ်ကိုင်းတိုင်း (Sagaing), Myanmar","(22.85732055, 95.03007476076434, 0.0)",22.85732055,95.03007476076434,0.0
541,MMR005010701,Tabayin Town,ဒီပဲယင်း,မြို့,Town,"ဒီပဲယင်း, ရွှေဘိုခရိုင်, စစ်ကိုင်းတိုင်း (Sagaing), Myanmar","(22.685286, 95.321213, 0.0)",22.685286,95.321213,0.0
542,MMR005010702,Saing Pyin Town,စိုင်ပြင်,မြို့,Town,,,,,
543,MMR005011701,Taze Town,တန့်ဆည်,မြို့,Town,"အထက တန့်ဆည်, ခရိုင်ချင်းဆက်လမ်းမကြိး, အက်တေားကျေးရွာ, ကန့်ဘလူ, စစ်ကိုင်းတိုင်း (Sagaing), Myanmar","(22.94774425, 95.40061675770531, 0.0)",22.94774425,95.40061675770531,0.0
544,MMR005012701,Monywa Town,မုံရွာ,မြို့,Town,"မုံရွာ, မုံရွာခရိုင်, စစ်ကိုင်းတိုင်း (Sagaing), Myanmar","(22.1182175, 95.1324747, 0.0)",22.1182175,95.1324747,0.0
545,MMR005013701,Budalin Town,ဘုတလင်,မြို့,Town,"ဘုတလင်, မုံရွာခရိုင်, စစ်ကိုင်းတိုင်း (Sagaing), Myanmar","(22.3871145, 95.1436405, 0.0)",22.3871145,95.1436405,0.0
546,MMR005014701,Ayadaw Town,အရာတော်,မြို့,Town,"အရာတော်, မုံရွာခရိုင်, စစ်ကိုင်းတိုင်း (Sagaing), Myanmar","(22.28525, 95.450677, 0.0)",22.28525,95.450677,0.0
547,MMR005015701,Chaung-U Town,ချောင်းဦး,မြို့,Town,"ချောင်းဦး, မုံရွာခရိုင်, စစ်ကိုင်းတိုင်း (Sagaing), Myanmar","(21.95693, 95.273628, 0.0)",21.95693,95.273628,0.0
548,MMR005016701,Yinmarbin Town,ယင်းမာပင်,မြို့,Town,"ယင်းမာပင်, ယင်းမာပင်ခရိုင်, စစ်ကိုင်းတိုင်း (Sagaing), Myanmar","(22.077789, 94.900139, 0.0)",22.077789,94.900139,0.0
549,MMR005017701,Kani Town,ကနီ,မြို့,Town,"ကနီ, ယင်းမာပင်ခရိုင်, စစ်ကိုင်းတိုင်း (Sagaing), Myanmar","(22.43291, 94.848469, 0.0)",22.43291,94.848469,0.0
550,MMR005018701,Salingyi Town,ဆားလင်းကြီး,မြို့,Town,"ဆားလင်းကြီး, ယင်းမာပင်ခရိုင်, စစ်ကိုင်းတိုင်း (Sagaing), Myanmar","(21.9724628, 95.0801873, 0.0)",21.9724628,95.0801873,0.0
551,MMR005019701,Pale Town,ပုလဲ,မြို့,Town,"ပုလဲ, ယင်းမာပင်ခရိုင်, စစ်ကိုင်းတိုင်း (Sagaing), Myanmar","(21.933992, 94.874673, 0.0)",21.933992,94.874673,0.0
552,MMR005020701,Katha Town,ကသာ,မြို့,Town,"ကသာ, ကသာခရိုင်, စစ်ကိုင်းတိုင်း (Sagaing), 50204, Myanmar","(24.1716852, 96.3430992, 0.0)",24.1716852,96.3430992,0.0
553,MMR005021701,Indaw Town,အင်းတော်,မြို့,Town,"အင်းတော်, ကသာခရိုင်, စစ်ကိုင်းတိုင်း (Sagaing), Myanmar","(24.222515, 96.14167, 0.0)",24.222515,96.14167,0.0
554,MMR005021702,Maw Lu Town,မော်လူး,မြို့,Town,,,,,
555,MMR005022701,Tigyaing Town,ထီးချိုင့်,မြို့,Town,"ထီးချိုင့်, ကသာခရိုင်, စစ်ကိုင်းတိုင်း (Sagaing), Myanmar","(23.7528084, 96.1463674, 0.0)",23.7528084,96.1463674,0.0
556,MMR005023701,Banmauk Town,ဗန်းမောက်,မြို့,Town,"ဗန်းမောက်, ကသာခရိုင်, စစ်ကိုင်းတိုင်း (Sagaing), Myanmar","(24.4004115, 95.8561039, 0.0)",24.4004115,95.8561039,0.0
557,MMR005024701,Kawlin Town,ကောလင်း,မြို့,Town,"ကောလင်း, ကသာခရိုင်, စစ်ကိုင်းတိုင်း (Sagaing), Myanmar","(23.794277, 95.6780844, 0.0)",23.794277,95.6780844,0.0
558,MMR005025701,Wuntho Town,ဝန်းသို,မြို့,Town,"ဝန်းသို, ကသာခရိုင်, စစ်ကိုင်းတိုင်း (Sagaing), Myanmar","(23.8989024, 95.6855946, 0.0)",23.8989024,95.6855946,0.0
559,MMR005026701,Pinlebu Town,ပင်လည်ဘူး,မြို့,Town,"ပင်လည်ဘူး, ကသာခရိုင်, စစ်ကိုင်းတိုင်း (Sagaing), Myanmar","(24.0904272, 95.3811532, 0.0)",24.0904272,95.3811532,0.0
560,MMR005027701,Kale Town,ကလေး,မြို့,Town,"ကလေး, ကလေးခရိုင်, စစ်ကိုင်းတိုင်း (Sagaing), 50501, Myanmar","(23.195728, 94.0158882, 0.0)",23.195728,94.0158882,0.0
561,MMR005028701,Kalewa Town,ကလေးဝ,မြို့,Town,"ကလေးဝ, ကလေးခရိုင်, စစ်ကိုင်းတိုင်း (Sagaing), Myanmar","(23.1986756, 94.3007869, 0.0)",23.1986756,94.3007869,0.0
562,MMR005029701,Mingin Town,မင်းကင်း,မြို့,Town,"မင်းကင်း, ကလေးခရိုင်, စစ်ကိုင်းတိုင်း (Sagaing), Myanmar","(22.877808, 94.494197, 0.0)",22.877808,94.494197,0.0
563,MMR005030701,Tamu Town,တမူး,မြို့,Town,"တမူး, တမူးခရိုင်, စစ်ကိုင်းတိုင်း (Sagaing), Myanmar","(24.2149165, 94.3031975, 0.0)",24.2149165,94.3031975,0.0
564,MMR005030702,Myothit Town,မြို့သစ်,မြို့,Town,"မြို့သစ်, ဗန်းမော်ခရိုင်, ကချင်ပြည်နယ် (Kachin), Myanmar","(24.4109379, 97.4068024, 0.0)",24.4109379,97.4068024,0.0
565,MMR005030703,Khampat Town,ခါမ်းပါတ်,မြို့,Town,,,,,
566,MMR005031701,Mawlaik Town,မော်လိုက်,မြို့,Town,"မော်လိုက်, မော်လိုက်ခရိုင်, စစ်ကိုင်းတိုင်း (Sagaing), Myanmar","(23.633333, 94.416667, 0.0)",23.633333,94.416667,0.0
567,MMR005032701,Paungbyin Town,ဖောင်းပြင်,မြို့,Town,"ဖောင်းပြင်, မော်လိုက်ခရိုင်, စစ်ကိုင်းတိုင်း (Sagaing), 02061, Myanmar","(24.1675822, 94.82962633552835, 0.0)",24.1675822,94.82962633552835,0.0
568,MMR005033701,Hkamti Town,ခန္တီး,မြို့,Town,"ခန္တီး, ခန္တီးခရိုင်, စစ်ကိုင်းတိုင်း (Sagaing), Myanmar","(26.0021393, 95.6912728, 0.0)",26.0021393,95.6912728,0.0
569,MMR005034701,Homalin Town,ဟုမ္မလင်း,မြို့,Town,"ဟုမ္မလင်း, ခန္တီးခရိုင်, စစ်ကိုင်းတိုင်း (Sagaing), Myanmar","(24.8688705, 94.9168779, 0.0)",24.8688705,94.9168779,0.0
570,MMR005034702,Shwe Pyi Aye Town,ရွှေပြည်အေး,မြို့,Town,"ရွှေပြည်အေး, ခန္တီးခရိုင်, စစ်ကိုင်းတိုင်း (Sagaing), Myanmar","(24.685757, 94.730367, 0.0)",24.685757,94.730367,0.0
571,MMR005034703,Mo Waing Lut Town,မိုဝိုင်းလွတ်,မြို့,Town,,,,,
572,MMR005035701,Lay Shi Town,လေရှီး,မြို့,Town,"လေရှီး, နာဂ ကိုယ်ပိုင်အုပ်ချုပ်ခွင့်ရ ဒေသ, ခန္တီးခရိုင်, စစ်ကိုင်းတိုင်း (Sagaing), Myanmar","(25.4463832, 94.9560249, 0.0)",25.4463832,94.9560249,0.0
573,MMR005035702,Mo Paing Lut Town,မိုပိုင်းလွတ်,မြို့,Town,"မိုပိုင်းလွတ်, နာဂ ကိုယ်ပိုင်အုပ်ချုပ်ခွင့်ရ ဒေသ, ခန္တီးခရိုင်, စစ်ကိုင်းတိုင်း (Sagaing), Myanmar","(25.046708, 94.787483, 0.0)",25.046708,94.787483,0.0
574,MMR005035703,Sum Ma Rar Town,ဆွမ္မရာ,မြို့,Town,"ဆွမ္မရာ, နာဂ ကိုယ်ပိုင်အုပ်ချုပ်ခွင့်ရ ဒေသ, ခန္တီးခရိုင်, စစ်ကိုင်းတိုင်း (Sagaing), Myanmar","(25.36455, 94.68729, 0.0)",25.36455,94.68729,0.0
575,MMR005036701,Lahe Town,လဟယ်,မြို့,Town,"လဟယ်, နာဂ ကိုယ်ပိုင်အုပ်ချုပ်ခွင့်ရ ဒေသ, ခန္တီးခရိုင်, စစ်ကိုင်းတိုင်း (Sagaing), Myanmar","(26.3252881, 95.4423223, 0.0)",26.3252881,95.4423223,0.0
576,MMR005036702,Htan Par Kway Town,ထန်ပါခွေ,မြို့,Town,"ထန်ပါခွေ, နာဂ ကိုယ်ပိုင်အုပ်ချုပ်ခွင့်ရ ဒေသ, ခန္တီးခရိုင်, စစ်ကိုင်းတိုင်း (Sagaing), Myanmar","(25.965885, 95.241478, 0.0)",25.965885,95.241478,0.0
577,MMR005037701,Nanyun Town,နန်းယွန်း,မြို့,Town,"နန်းယွန်း, နာဂ ကိုယ်ပိုင်အုပ်ချုပ်ခွင့်ရ ဒေသ, ခန္တီးခရိုင်, စစ်ကိုင်းတိုင်း (Sagaing), Myanmar","(26.9798882, 96.1671674, 0.0)",26.9798882,96.1671674,0.0
578,MMR005037702,Pansaung Town,ပန်ဆောင်,မြို့,Town,"ပန်ဆောင်, နာဂ ကိုယ်ပိုင်အုပ်ချုပ်ခွင့်ရ ဒေသ, ခန္တီးခရိုင်, စစ်ကိုင်းတိုင်း (Sagaing), Myanmar","(27.2370074, 96.1665341, 0.0)",27.2370074,96.1665341,0.0
579,MMR005037703,Don Hee Town,ဒုံဟီး,မြို့,Town,"ဒုံဟီး, နာဂ ကိုယ်ပိုင်အုပ်ချုပ်ခွင့်ရ ဒေသ, ခန္တီးခရိုင်, စစ်ကိုင်းတိုင်း (Sagaing), Myanmar","(26.816068, 95.798842, 0.0)",26.816068,95.798842,0.0
580,MMR006001701,Dawei Town,ထားဝယ်,မြို့,Town,"Dawei ထားဝယ်, ကျောက်ဆည်, ကျောက်ဆည်ခရိုင်, မန္တလေးတိုင်း, 05151, Myanmar","(21.583105, 96.1519011, 0.0)",21.583105,96.1519011,0.0
581,MMR006001702,Myitta Town,မေတ္တာ,မြို့,Town,"မေတ္တာ, သုနန္ဒာလမ်း, မြောက်ဥက္ကလာပ, Eastern District, ရန်ကုန်တိုင်းဒေသကြီး, 491376, Myanmar","(16.9119721, 96.1729126, 0.0)",16.9119721,96.1729126,0.0
582,MMR006002701,Launglon Town,လောင်းလုံး,မြို့,Town,"လောင်းလုံး, Dawei District, Tanintharyi Region, 60102, Myanmar","(13.876935549999999, 97.89963424616315, 0.0)",13.876935549999999,97.89963424616315,0.0
583,MMR006003701,Thayetchaung Town,သရက်ချောင်း,မြို့,Town,"သရက်ချောင်း, Dawei District, Tanintharyi Region, Myanmar","(13.65614075, 98.42172453844316, 0.0)",13.65614075,98.42172453844316,0.0
584,MMR006004701,Yebyu Town,ရေဖြူ,မြို့,Town,"ရေဖြူ, Dawei District, Tanintharyi Region, Myanmar","(14.6360285, 98.00147291482196, 0.0)",14.6360285,98.00147291482196,0.0
585,MMR006004702,Kaleinaung Town,ကလိန်အောင်,မြို့,Town,"ကလိန်အောင်, Dawei District, Tanintharyi Region, Myanmar","(14.6239796, 98.1379479, 0.0)",14.6239796,98.1379479,0.0
586,MMR006005701,Myeik Town,မြိတ်,မြို့,Town,"မြိတ် လေဆိပ်, ကုန်းဖေါက်လမ်း Kone Phauk Road, Shwe Pay ရွေပေး, မြိတ်မြို့, Myeik District, Tanintharyi Region, 14051, Myanmar","(12.437362199999999, 98.62078837812436, 0.0)",12.437362199999999,98.62078837812436,0.0
587,MMR006006701,Kyunsu Town,ကျွန်းစု,မြို့,Town,"ကျွန်းစု, Myeik District, Tanintharyi Region, 63150, Myanmar","(12.1267742, 98.09774623270837, 0.0)",12.1267742,98.09774623270837,0.0
588,MMR006007701,Palaw Town,ပုလော,မြို့,Town,"ပုလော, Myeik District, Tanintharyi Region, Myanmar","(13.1117748, 98.19618266726906, 0.0)",13.1117748,98.19618266726906,0.0
589,MMR006007702,Palauk Town,ပလောက်,မြို့,Town,,,,,
590,MMR006007703,Pala Town,ပလ,မြို့,Town,"Pala, Meenachil, Kottayam, Kerala, 686575, India","(9.7130742, 76.6831302, 0.0)",9.7130742,76.6831302,0.0
591,MMR006008701,Tanintharyi Town,တနင်္သာရီ,မြို့,Town,"တနင်္သာရီ, Myeik District, Tanintharyi Region, 14071, Myanmar","(12.0911435, 99.0111487, 0.0)",12.0911435,99.0111487,0.0
592,MMR006008702,Maw Taung Town,မောတောင်,မြို့,Town,"မောတောင် Maw Taung, တနင်္သာရီ, Myeik District, Tanintharyi Region, Myanmar","(11.7958384, 99.6285973, 0.0)",11.7958384,99.6285973,0.0
593,MMR006009701,Kawthoung Town,ကော့သောင်း,မြို့,Town,"ကော့သောင်း, Kawthoung District, Tanintharyi Region, Myanmar","(10.1839426, 98.11827779792682, 0.0)",10.1839426,98.11827779792682,0.0
594,MMR006009702,Khamaukgyi Town,ခမောက်ကြီး,မြို့,Town,,,,,
595,MMR006010701,Bokpyin Town,ဘုတ်ပြင်း,မြို့,Town,"ဘုတ်ပြင်း, Kawthoung District, Tanintharyi Region, Myanmar","(11.219682500000001, 98.31206654932451, 0.0)",11.219682500000001,98.31206654932451,0.0
596,MMR006010702,Pyigyimandaing Town,ပြည်ကြီးမဏ္ဍိုင်,မြို့,Town,"ပြည်ကြီးမဏ္ဍိုင်, Kawthoung District, Tanintharyi Region, Myanmar","(11.4722501, 99.0024803, 0.0)",11.4722501,99.0024803,0.0
597,MMR006010703,Karathuri Town,ကရသူရိ,မြို့,Town,,,,,
598,MMR007001701,Bago Town,ပဲခူး,မြို့,Town,"ပဲခူး, ပဲခူးခရိုင်, ပဲခူးတိုင်းဒေသကြီး အရှေ့ခြမ်း, ပဲခူးတိုင်းဒေသကြီး (Bago), Myanmar","(17.336667, 96.479722, 0.0)",17.336667,96.479722,0.0
599,MMR007001702,Hpayargyi Town,ဘုရားကြီး,မြို့,Town,"ဘုရားကြီး, ပဲခူးခရိုင်, ပဲခူးတိုင်းဒေသကြီး အရှေ့ခြမ်း, ပဲခူးတိုင်းဒေသကြီး (Bago), 08013, Myanmar","(17.4743026, 96.5249877, 0.0)",17.4743026,96.5249877,0.0
